cod_loc,id_provincia,id_departamento,observaciones,categoria,subcategoria,provincia,departamento,localidad,nombre,domicilio,piso,CP,cod_area,telefono,mail,web,informacion,latitud,longitud,TipoLatitudLongitud,actividad_especifica,denominacion_especifica,fuente,tipo_gestion,inicio_act,capacidad,ano_actualizacion
6861010,6,6861,,Salas de Teatro,,Buenos Aires,Vicente Lopez,Vicente Lopez,Alparamis,Av. Del Libertador 2229,,1638,s/d,s/d,s/d,www.alparamis.com.ar,,-34.510513,-58.478029,Precisa,,,Red de Espacios Culturales Vicente López,Privado,0,,2019
6861010,6,6861,,Salas de Teatro,,Buenos Aires,Vicente Lopez,Vicente Lopez,Complejo Cultural Comunicanto,Bolivia 1590,,1406,s/d,s/d,s/d,www.comunicanto.com.ar/teatro,,-34.5374337,-58.5128869,Precisa,,,Red de Espacios Culturales Vicente López,Privado,0,,2019
2000010,2,2000,,Salas de Teatro,,Ciudad Autonoma de Buenos Aires,Ciudad Autonoma de Buenos Aires,Ciudad Autonoma de Buenos Aires,La Fábrica,Acevedo 768,s/d,s/d,11,47762346,lafabricaespaciodearte@gmail.com,s/d,s/d,-34.59540311,-58.43663057,Precisa,,s/d,Alternativa Teatral / Relevamiento 2017,Privado,0,0,2020
2000010,2,2000,,Salas de Teatro,,Ciudad Autonoma de Buenos Aires,Ciudad Autonoma de Buenos Aires,Ciudad Autonoma de Buenos Aires,Arlequino,Adolfo Alsina 1484,s/d,1088,11,43827775,teatro_arlequino@yahoo.com.ar,s/d,s/d,-34.61115,-58.387238,Precisa,,s/d,Plan Podesta 2020 / Relevamiento SINCA,Privado,0,200,2020
2000010,2,2000,,Salas de Teatro,,Ciudad Autonoma de Buenos Aires,Ciudad Autonoma de Buenos Aires,Ciudad Autonoma de Buenos Aires,Teatro de la Fabula,Agüero  444,Subsuelo,1171,11,48626439,teatrodelafabula@gmail.com ,s/d,A la italiana,-34.604695,-58.411907,Precisa,,s/d,Plan Podesta 2020 / Relevamiento SINCA,Privado,1965,100,2020
2000010,2,2000,,Salas de Teatro,,Ciudad Autonoma de Buenos Aires,Ciudad Autonoma de Buenos Aires,Ciudad Autonoma de Buenos Aires,Espacio Aguirre. Teatro y Escuela de Clown,Aguirre 1270 ,P.B.,1414,11,48541905,produccion@espacioaguirre.com.ar,www.espacioaguirre.com.ar,"Espacio no convencional (tarima, al ras del piso. circular, semicircular) - Capacidad sala 2: 35 personas; capacidad sala 3: 25 personas.",-34.590792,-58.442096,Precisa,,s/d,Plan Podesta 2020 / Relevamiento SINCA,Privado,2000,90,2020
2000010,2,2000,,Salas de Teatro,,Ciudad Autonoma de Buenos Aires,Ciudad Autonoma de Buenos Aires,Ciudad Autonoma de Buenos Aires,Cine Teatro  Brown ,Almirante Brown. Av. 1375,P.B.,1159,11,43023284,teatrobrownoficial@gmail.com,s/d,"Espacio no convencional (tarima, al ras del piso. circular, semicircular)",-34.636751,-58.358031,Precisa,,s/d,Proteatro 2017 / Relevamiento 2017,Privado,2008,250,2020
2000010,2,2000,,Salas de Teatro,,Ciudad Autonoma de Buenos Aires,Ciudad Autonoma de Buenos Aires,Ciudad Autonoma de Buenos Aires,El Brio Teatro,Alvarez Thomas. Av. 1582,s/d,s/d,s/d,s/d,elbrioteatro@gmail.com ,s/d,"Espacio no convencional (tarima, al ras del piso. circular, semicircular)",-34.57877,-58.46425,Precisa,,s/d,Plan Podesta 2020 / Relevamiento SINCA,Privado,0,50,2020
2000010,2,2000,,Salas de Teatro,,Ciudad Autonoma de Buenos Aires,Ciudad Autonoma de Buenos Aires,Ciudad Autonoma de Buenos Aires,Machado Teatro,Antonio Machado 617,P.B.,1405,11,49824922,machado617@gmail.com,www.machadoteatro.com.ar,"Espacio no convencional (tarima, al ras del piso. circular, semicircular)",-34.60641,-58.4405,Precisa,,s/d,Plan Podesta 2020 / Relevamiento SINCA,Privado,2011,50,2020
2000010,2,2000,,Salas de Teatro,,Ciudad Autonoma de Buenos Aires,Ciudad Autonoma de Buenos Aires,Ciudad Autonoma de Buenos Aires,Teatro Ganesha,Av.  Tte. Gral. Donato Álvarez 524,,1406,s/d,s/d,teatroganesha@gmail.com,facebook.com/teatroganesha/,,-34.6199401,-58.4572499,Precisa,"Teatro,clases y talleres",,Plan Podesta 2020 / Relevamiento SINCA,Privado,,,2020
2000010,2,2000,,Salas de Teatro,,Ciudad Autonoma de Buenos Aires,Ciudad Autonoma de Buenos Aires,Ciudad Autonoma de Buenos Aires,Tercer Arco,Av. de Mayo  1158,,1084,s/d,s/d,hipolitoyrigoyen1159pbsrl@gmail.com,facebook.com/Terceractorestobar/,,-34.60928,-58.382848,Precisa,s/d,,Plan Podesta 2020 / Relevamiento SINCA,Privado,,,2020
2000010,2,2000,,Salas de Teatro,,Ciudad Autonoma de Buenos Aires,Ciudad Autonoma de Buenos Aires,Ciudad Autonoma de Buenos Aires,Espacio Templum,Ayacucho  318,1°,1025,11,49531513,info@espaciotemplum.com.ar,www.espaciotemplum.com.ar,A la italiana - capacidad sala 2: 15 personas,-34.60563,-58.39518,Precisa,,s/d,Proteatro 2017 / Relevamiento 2017,Privado,1991,60,2020
2000010,2,2000,,Salas de Teatro,,Ciudad Autonoma de Buenos Aires,Ciudad Autonoma de Buenos Aires,Ciudad Autonoma de Buenos Aires,Aérea Teatro,Bartolomé Mitre 4272 ,,1201,11,49836980,danzaerea@gmail.com,www.aereateatro.com/,,-34.6105074,-58.4271424,Precisa,Sala de danza y teatro,,Plan Podesta 2020 / Relevamiento SINCA,Privado,,,2020
2000010,2,2000,,Salas de Teatro,,Ciudad Autonoma de Buenos Aires,Ciudad Autonoma de Buenos Aires,Ciudad Autonoma de Buenos Aires,El Galpón de Catalinas,Benito Pérez Galdós 93,P.B.,1155,11,43071097,grupodeteatro@catalinasur.com.ar,www.catalinasur.com.ar,"Espacio no convencional (tarima, al ras del piso. circular, semicircular)",-34.629274,-58.358347,Precisa,,s/d,Plan Podesta 2020 / Relevamiento SINCA,Privado,1997,250,2020
2000010,2,2000,,Salas de Teatro,,Ciudad Autonoma de Buenos Aires,Ciudad Autonoma de Buenos Aires,Ciudad Autonoma de Buenos Aires,Espacio de Teatro Boedo XXI,Boedo. Av. 853 ,1°,1218,11,49571400,boedoxxi@gmail.com,s/d,A la italiana,-34.623255,-58.416291,Precisa,,s/d,Plan Podesta 2020 / Relevamiento SINCA,Privado,2001,80,2020
2000010,2,2000,,Salas de Teatro,,Ciudad Autonoma de Buenos Aires,Ciudad Autonoma de Buenos Aires,Ciudad Autonoma de Buenos Aires,Teatro Pan y Arte ,Boedo. Av. 880,1°,1218,11,49576922,teatro@panyarte.com.ar,www.panyarte.com.ar,"Espacio no convencional (tarima, al ras del piso. circular, semicircular) - Capacidad sala 2: 50 personas",-34.623585,-58.416252,Precisa,,s/d,Plan Podesta 2020 / Relevamiento SINCA,Privado,2000,80,2020
2000010,2,2000,,Salas de Teatro,,Ciudad Autonoma de Buenos Aires,Ciudad Autonoma de Buenos Aires,Ciudad Autonoma de Buenos Aires,Teatro del Perro,Bonpland 800,s/d,1414,s/d,s/d,teatrodelperro@gmail.com.ar,s/d,"Espacio no convencional (tarima, al ras del piso. circular, semicircular)",-34.5902626,-58.4460856,Precisa,,s/d,Plan Podesta 2020 / Relevamiento SINCA,Privado,2008,80,2020
2000010,2,2000,,Salas de Teatro,,Ciudad Autonoma de Buenos Aires,Ciudad Autonoma de Buenos Aires,Ciudad Autonoma de Buenos Aires,Asociación Israelita Argentina Pro Arte IFT,Boulogne Sur Mer 549,,1213,11,49629420,coordinacioncultural@teatroift.org.ar,,,-34.60368,-58.40632,,Teatro,,Plan Podesta 2020 / Relevamiento SINCA,Privado,1932,750,2020
2000010,2,2000,,Salas de Teatro,,Ciudad Autonoma de Buenos Aires,Ciudad Autonoma de Buenos Aires,Ciudad Autonoma de Buenos Aires,Pompapetriyasos Teatro Comunitario,Brasil. Av. 2802,s/d,s/d,s/d,s/d,pompapetriyasos@yahoo.com.ar,s/d,"Espacio no convencional (tarima, al ras del piso. circular, semicircular)",-34.6327715,-58.4031891,Precisa,,Grupo de Teatro Comunitario,Alternativa Teatral / Relevamiento 2017,Privado,2002,0,2020
2000010,2,2000,,Salas de Teatro,,Ciudad Autonoma de Buenos Aires,Ciudad Autonoma de Buenos Aires,Ciudad Autonoma de Buenos Aires,Auditorio Cendas,Bulnes 1350,s/d,1176,11,48623418,teatrocendas@yahoo.com.ar,www.cendas.com.ar,Auditorio,-34.596101,-58.416881,Precisa,,s/d,Proteatro 2017 / Relevamiento 2017,Privado,0,125,2020
2000010,2,2000,,Salas de Teatro,,Ciudad Autonoma de Buenos Aires,Ciudad Autonoma de Buenos Aires,Ciudad Autonoma de Buenos Aires,La Huella Arte En Movimiento,Bulnes 892,s/d,s/d,11,20546659,huellaclubdearte@yahoo.com.ar,www.lahuellaespaciodearte.blogspot.com.ar,s/d,-34.6011571,-58.41791773,Precisa,,s/d,Alternativa Teatral / Relevamiento 2017,Privado,0,35,2020
2000010,2,2000,,Salas de Teatro,,Ciudad Autonoma de Buenos Aires,Ciudad Autonoma de Buenos Aires,Ciudad Autonoma de Buenos Aires,Centro Creativo Cabildo,Cabildo. Av. 4740,1°,1429,11,47031412,teatrocabildo@gmail.com,www.teatrocabildo.com.ar,A la italiana - Capacidad sala 2: 50 personas,-34.541247,-58.474016,Precisa,,s/d,Plan Podesta 2020 / Relevamiento SINCA,Privado,1992,50,2020
2000010,2,2000,,Salas de Teatro,,Ciudad Autonoma de Buenos Aires,Ciudad Autonoma de Buenos Aires,Ciudad Autonoma de Buenos Aires,La Mueca Teatro,Cabrera 4255 ,P.B.,s/d,11,48672155,Eclamuecateatro@gmail.com,s/d,A la italiana,-34.59503,-58.42505,Precisa,,s/d,Plan Podesta 2020 / Relevamiento SINCA,Privado,2011,140,2020
2000010,2,2000,,Salas de Teatro,,Ciudad Autonoma de Buenos Aires,Ciudad Autonoma de Buenos Aires,Ciudad Autonoma de Buenos Aires,Moscu Teatro,Camargo 506,1°,1414,11,20743718,moscuteatro@gmail.com,www.moscuteatro.com.ar,"Espacio no convencional (tarima, al ras del piso. circular, semicircular)",-34.60055,-58.44001,Precisa,,s/d,Plan Podesta 2020 / Relevamiento SINCA,Privado,2014,49,2020
2000010,2,2000,,Salas de Teatro,,Ciudad Autonoma de Buenos Aires,Ciudad Autonoma de Buenos Aires,Ciudad Autonoma de Buenos Aires,Páramo Cultural Teatro,Carlos Calvo 3974,,1230,11,23911927,culturalparamo@gmail.com,,,-34.624869,-58.42156,Precisa,Teatro y espectáculos musicales,,Plan Podesta 2020 / Relevamiento SINCA,Privado,,,2020
2000010,2,2000,,Salas de Teatro,,Ciudad Autonoma de Buenos Aires,Ciudad Autonoma de Buenos Aires,Ciudad Autonoma de Buenos Aires,Animal,Castro 561,,1217,11,58300452,espacioanimalarte@gmail.com,https://animalteatro.wordpress.com/,,-34.6183667,-58.420731,Precisa,"Sala de ensayo,teatro,clases,bar",,Plan Podesta 2020 / Relevamiento SINCA,Privado,,,2020
2000010,2,2000,,Salas de Teatro,,Ciudad Autonoma de Buenos Aires,Ciudad Autonoma de Buenos Aires,Ciudad Autonoma de Buenos Aires,Pista Urbana,Chacabuco 874,,1069,11,43613015,info@pistaurbana.com,facebook.com/pistaurbanabar/,,-34.61752329,-58.37558504,,,,Fondo Desarrollar 2020,Privado,,,2020
2000010,2,2000,,Salas de Teatro,,Ciudad Autonoma de Buenos Aires,Ciudad Autonoma de Buenos Aires,Ciudad Autonoma de Buenos Aires,TAI Teatro (Teatro artes independientes),Charlone 1752,,1427,s/d,s/d,,facebook.com/taiteatroycantina/,,-34.58050078,-58.46662243,,,,Fondo Desarrollar 2020,Privado,,,2020
2000010,2,2000,,Salas de Teatro,,Ciudad Autonoma de Buenos Aires,Ciudad Autonoma de Buenos Aires,Ciudad Autonoma de Buenos Aires,El Popular,Chile 2080,s/d,1227,11,20518438,info@teatroelpopular.com.ar,www.teatroelpopular.com,"Espacio no convencional (tarima, al ras del piso. circular, semicircular) - capacidad sala 2: 60 personas",-34.61729576,-58.39564353,Precisa,,s/d,Plan Podesta 2020 / Relevamiento SINCA,Privado,2012,120,2020
2000010,2,2000,,Salas de Teatro,,Ciudad Autonoma de Buenos Aires,Ciudad Autonoma de Buenos Aires,Ciudad Autonoma de Buenos Aires,Delborde Espacio Teatral,Chile 630 ,P.B.,1098,11,43006201,info@delborde.com.ar,www.delborde.com.ar,"Espacio no convencional (tarima, al ras del piso. circular, semicircular)",-34.616102,-58.374942,Precisa,,s/d,Plan Podesta 2020 / Relevamiento SINCA,Privado,2004,55,2020
2000010,2,2000,,Salas de Teatro,,Ciudad Autonoma de Buenos Aires,Ciudad Autonoma de Buenos Aires,Ciudad Autonoma de Buenos Aires,La Hormiga Teatro,Ciudad de La Paz 828,P.B.,1426,11,47842274,Info@lahormigateatro.com.ar,www.lahormigateatro.com.ar,"Espacio no convencional (tarima, al ras del piso. circular, semicircular) - capacidad sala 2: 30 personas",-34.57106863,-58.44707239,Precisa,,s/d,Plan Podesta 2020 / Relevamiento SINCA,Privado,2007,30,2020
2000010,2,2000,,Salas de Teatro,,Ciudad Autonoma de Buenos Aires,Ciudad Autonoma de Buenos Aires,Ciudad Autonoma de Buenos Aires,Teatro Del Pasillo,Colombres 35,s/d,1045,11,49815167,s/d,www.delpasilloteatro.com.ar/el_teatro.html,s/d,-34.611714,-58.419521,Precisa,,s/d,Plan Podesta 2020 / Relevamiento SINCA,Privado,1996,100,2020
2000010,2,2000,,Salas de Teatro,,Ciudad Autonoma de Buenos Aires,Ciudad Autonoma de Buenos Aires,Ciudad Autonoma de Buenos Aires,Picadilly,Corrientes. Av. 1524,s/d,s/d,11,43731900,juanmanuel@picadilly.com.ar,www.teatropicadilly.com.ar,s/d,-34.604122,-58.388223,Precisa,,s/d,Proteatro 2017 / Relevamiento 2017,Privado,0,292,2020
2000010,2,2000,,Salas de Teatro,,Ciudad Autonoma de Buenos Aires,Ciudad Autonoma de Buenos Aires,Ciudad Autonoma de Buenos Aires,Columbia Teatro ,Corrientes. Av. 1537,P.B.,s/d,11,43716086,Claudiosalama@hotmail.com ,s/d,A la italiana,-34.60405776,-58.3884873,Precisa,,s/d,Plan Podesta 2020 / Relevamiento SINCA,Privado,2015,80,2020
2000010,2,2000,,Salas de Teatro,,Ciudad Autonoma de Buenos Aires,Ciudad Autonoma de Buenos Aires,Ciudad Autonoma de Buenos Aires,Auditorio Losada,Corrientes. Av. 1551,s/d,1042,11,4373006,suredafernando@hotmail.com,s/d,Auditorio,-34.604156,-58.388647,Precisa,,s/d,Plan Podesta 2020 / Relevamiento SINCA,Privado,0,130,2020
2000010,2,2000,,Salas de Teatro,,Ciudad Autonoma de Buenos Aires,Ciudad Autonoma de Buenos Aires,Ciudad Autonoma de Buenos Aires,Belisario Club de Cultura,Corrientes. Av. 1624,s/d,1042,11,43733465,info@marcelosavignone.com,s/d,"Espacio no convencional (tarima, al ras del piso. circular, semicircular)",-34.604258,-58.389721,Precisa,,s/d,Plan Podesta 2020 / Relevamiento SINCA,Privado,2001,107,2020
2000010,2,2000,,Salas de Teatro,,Ciudad Autonoma de Buenos Aires,Ciudad Autonoma de Buenos Aires,Ciudad Autonoma de Buenos Aires,Teatro Eureka,Corrientes. Av. 4269,1°,s/d,11,62316194,quierohacerteatro@gmail.com,www.quierohacerteatro.com.ar,A la italiana,-34.60273,-58.42502,Precisa,,s/d,Plan Podesta 2020 / Relevamiento SINCA,Privado,2011,50,2020
2000010,2,2000,,Salas de Teatro,,Ciudad Autonoma de Buenos Aires,Ciudad Autonoma de Buenos Aires,Ciudad Autonoma de Buenos Aires,La Pausa Teatral,Corrientes. Av. 4521,s/d,1195,11,51232030,hola@lapausateatral.com.ar,www.lapausateatral.com.ar,A la italiana,-34.60227885,-58.42894207,Precisa,,s/d,Plan Podesta 2020 / Relevamiento SINCA,Privado,2015,43,2020
2000010,2,2000,,Salas de Teatro,,Ciudad Autonoma de Buenos Aires,Ciudad Autonoma de Buenos Aires,Ciudad Autonoma de Buenos Aires,La Ratonera Cultural,Corrientes. Av. 5552,s/d,1414,11,43723200,fernandocipoll@hotmail.com,s/d,s/d,-34.596803,-58.442137,Precisa,,s/d,Plan Podesta 2020 / Relevamiento SINCA,Privado,0,80,2020
2000010,2,2000,,Salas de Teatro,,Ciudad Autonoma de Buenos Aires,Ciudad Autonoma de Buenos Aires,Ciudad Autonoma de Buenos Aires,Corrientes Azul,Corrientes. Av. 5965,s/d,1414,s/d,s/d,corrientesazul@hotmail.com,www.corrientesazul.com.ar,s/d,-34.593571,-58.44555,Precisa,,s/d,Plan Podesta 2020 / Relevamiento SINCA,Privado,0,50,2020
2000010,2,2000,,Salas de Teatro,,Ciudad Autonoma de Buenos Aires,Ciudad Autonoma de Buenos Aires,Ciudad Autonoma de Buenos Aires,Teatro Taller El Grito,Costa Rica 5459,s/d,1414,11,49416118,elgrito5459@hotmail.com,www.teatroelgrito.com.ar,s/d,-34.583649,-58.433388,Precisa,,s/d,Plan Podesta 2020 / Relevamiento SINCA,Privado,2004,50,2020
2000010,2,2000,,Salas de Teatro,,Ciudad Autonoma de Buenos Aires,Ciudad Autonoma de Buenos Aires,Ciudad Autonoma de Buenos Aires,Cirujismo espacio cultural,Dean Funes 1267,,1244,11,26953639,cirujismo@gmail.com,facebook.com/Cirujismo/,"Espacio no convencional (tarima, al ras del piso. circular, semicircular)",-34.625271,-58.405666,Precisa,"Teatro de arte dramático,talleres y seminarios",,Plan Podesta 2020 / Relevamiento SINCA,Privado,0,80,2020
2000010,2,2000,,Salas de Teatro,,Ciudad Autonoma de Buenos Aires,Ciudad Autonoma de Buenos Aires,Ciudad Autonoma de Buenos Aires,Galpón F.A.C.E,Dean Funes 2142,,1244,11,61756105,galponface@gmail.com,facebook.com/galponface/,,-34.636474,-58.4043237,Precisa,"Teatro que funciona como espacio de formación,investigación, producción ",,Plan Podesta 2020 / Relevamiento SINCA,Privado,,,2020
2000010,2,2000,,Salas de Teatro,,Ciudad Autonoma de Buenos Aires,Ciudad Autonoma de Buenos Aires,Ciudad Autonoma de Buenos Aires,Teatro El Damero,Dean Funes 506 ,P.B.,1231,11,20602278,hogallardo@gmail.com,www.teatroeldamero.com,"Espacio no convencional (tarima, al ras del piso. circular, semicircular)",-34.6164596,-58.40679529,Precisa,,s/d,Plan Podesta 2020 / Relevamiento SINCA,Privado,2012,40,2020
2000010,2,2000,,Salas de Teatro,,Ciudad Autonoma de Buenos Aires,Ciudad Autonoma de Buenos Aires,Ciudad Autonoma de Buenos Aires,Torquato Tasso,Defensa 1575,,1143,11,43076506,info@torquatotasso.com.ar,facebook.com/TorquatoTasso/,,-34.62619,-58.3714,,,,Fondo Desarrollar 2020,Privado,,200,2020
2000010,2,2000,,Salas de Teatro,,Ciudad Autonoma de Buenos Aires,Ciudad Autonoma de Buenos Aires,Ciudad Autonoma de Buenos Aires,Oeste Usina Cultural,Del Barco Centenera 143,1°,1424,11,49013111,contacto@oesteusinacultural.com.ar,www.oesteusinacultural.com.ar,"Espacio no convencional (tarima, al ras del piso. circular, semicircular)",-34.621537,-58.441007,Precisa,,s/d,Plan Podesta 2020 / Relevamiento SINCA,Privado,2008,50,2020
2000010,2,2000,,Salas de Teatro,,Ciudad Autonoma de Buenos Aires,Ciudad Autonoma de Buenos Aires,Ciudad Autonoma de Buenos Aires,Actors Studio Teatro,Diaz Velez 3842,P.B.,1200,11,49839883,teatro@actors-studio.org ,www.actors-studio.org,A la italiana - capacidad sala 2: 40 personas,-34.60862,-58.42049,Precisa,,s/d,Plan Podesta 2020 / Relevamiento SINCA,Privado,1997,130,2020
2000010,2,2000,,Salas de Teatro,,Ciudad Autonoma de Buenos Aires,Ciudad Autonoma de Buenos Aires,Ciudad Autonoma de Buenos Aires,La Kermesse,Doctor Tomás Manuel de Anchorena 1347 ,,1425,11,53296073,espacioparacultura@gmail.com,facebook.com/lakermesseteatrobar/,,-34.5939,-58.40564,,Espectáculos,,Plan Podesta 2020 / Relevamiento SINCA,Privado,,50,2020
2000010,2,2000,,Salas de Teatro,,Ciudad Autonoma de Buenos Aires,Ciudad Autonoma de Buenos Aires,Ciudad Autonoma de Buenos Aires,Espacio Crearte Escuela de Teatro,Don Bosco 4124,,1206,s/d,s/d,espaciocrearte@gmail.com,facebook.com/EspacioCrearteTeatro/,,-34.61351945,-58.42370219,,,,Fondo Desarrollar 2020,Privado,,,2020
2000010,2,2000,,Salas de Teatro,,Ciudad Autonoma de Buenos Aires,Ciudad Autonoma de Buenos Aires,Ciudad Autonoma de Buenos Aires,Estudio los vidrios,Donado 2348,,1430,11,40316729,estudiolosvidrios@gmail.com,http://cargocollective.com/,,-34.5708154,-58.4772422,Precisa,"Teatro,obras,cursos,talleres",,Plan Podesta 2020 / Relevamiento SINCA,Privado,,,2020
2000010,2,2000,,Salas de Teatro,,Ciudad Autonoma de Buenos Aires,Ciudad Autonoma de Buenos Aires,Ciudad Autonoma de Buenos Aires,Paternal Teatro,Dr. Nicolás Repetto 1556,P.B.,1416,11,45848703,hector_bidonde@yahoo.com.ar,s/d,A la italiana,-34.605255,-58.45214,Precisa,,s/d,Plan Podesta 2020 / Relevamiento SINCA,Privado,1998,100,2020
2000010,2,2000,,Salas de Teatro,,Ciudad Autonoma de Buenos Aires,Ciudad Autonoma de Buenos Aires,Ciudad Autonoma de Buenos Aires,El Método Kairós Teatro ,El Salvador 4530,,1414,11,48319663,info@elmetodokairos.com.ar,http://www.elmetodokairos.com.ar/,,-34.5907753,-58.4253557,Precisa,Teatroobras,,Plan Podesta 2020 / Relevamiento SINCA,Privado,,50,2020
2000010,2,2000,,Salas de Teatro,,Ciudad Autonoma de Buenos Aires,Ciudad Autonoma de Buenos Aires,Ciudad Autonoma de Buenos Aires,Abre Club de Arte,Elpidio González 2764,s/d,s/d,s/d,s/d,sergiofuda@gmail.com,www.clubdearte.blogspot.com.ar,s/d,-34.60868,-58.48111,Precisa,,s/d,Plan Podesta 2020 / Relevamiento SINCA,Privado,0,40,2020
2000010,2,2000,,Salas de Teatro,,Ciudad Autonoma de Buenos Aires,Ciudad Autonoma de Buenos Aires,Ciudad Autonoma de Buenos Aires,Club de Trapecistas,Ferrari 252,P.B.,1414,11,48573934,info@clubdetrapecistas.com.ar,www.clubdetrapecistas.com.ar,"Espacio no convencional (tarima, al ras del piso. circular, semicircular)",-34.604197,-58.439528,Precisa,,s/d,Plan Podesta 2020 / Relevamiento SINCA,Privado,2004,150,2020
2000010,2,2000,,Salas de Teatro,,Ciudad Autonoma de Buenos Aires,Ciudad Autonoma de Buenos Aires,Ciudad Autonoma de Buenos Aires,El Taller de Omar,Fitz Roy 1245,,1414,11,20958150,info@eltallerdeomar.com,https://eltallerdeomar.com.ar/,,-34.5879424,-58.4407935,Precisa,"Sala,exhibiciones,exposiiciones,talleres,seminarios",,Plan Podesta 2020 / Relevamiento SINCA,Privado,,120,2020
2000010,2,2000,,Salas de Teatro,,Ciudad Autonoma de Buenos Aires,Ciudad Autonoma de Buenos Aires,Ciudad Autonoma de Buenos Aires,Espacio Polonia,Fitz Roy 1477,P.B.,1426,s/d,s/d,poloniateatro@yahoo.com,s/d,"Espacio no convencional (tarima, al ras del piso. circular, semicircular)",-34.58609057,-58.43835167,Precisa,,s/d,Plan Podesta 2020 / Relevamiento SINCA,Privado,2009,33,2020
2000010,2,2000,,Salas de Teatro,,Ciudad Autonoma de Buenos Aires,Ciudad Autonoma de Buenos Aires,Ciudad Autonoma de Buenos Aires,Espacio Cultural Fonrouge,Fonrouge 483,,1408,11,61547489,ecfonrouge@gmail.com,http://ecfonrouge.com.ar/,,-34.6433208,-58.5109236,Precisa,Teatro de arte dramático y clases de actuación,,Plan Podesta 2020 / Relevamiento SINCA,Privado,,,2020
2000010,2,2000,,Salas de Teatro,,Ciudad Autonoma de Buenos Aires,Ciudad Autonoma de Buenos Aires,Ciudad Autonoma de Buenos Aires,Ventanas espacio teatral,Francisco Acuña de Figueroa 700,,1414,11,48649288,nicostraimel@gmail.com,facebook.com/ventanasalquilersala,,-34.602357,-58.422498,Precisa,Sala y clases,,Plan Podesta 2020 / Relevamiento SINCA,Privado,,,2020
2000010,2,2000,,Salas de Teatro,,Ciudad Autonoma de Buenos Aires,Ciudad Autonoma de Buenos Aires,Ciudad Autonoma de Buenos Aires,La Tertulia,Gallo 826,s/d,1172,11,48650303,teatrolatertulia@gmail.com,www.teatrolatertulia.com.ar,"Espacio no convencional (tarima, al ras del piso. circular, semicircular)",-34.600006,-58.412243,Precisa,"Sala Teatral,producciones teatrales",s/d,Plan Podesta 2020 / Relevamiento SINCA,Privado,2002,50,2020
2000010,2,2000,,Salas de Teatro,,Ciudad Autonoma de Buenos Aires,Ciudad Autonoma de Buenos Aires,Ciudad Autonoma de Buenos Aires,Casa Temenos,Gaona 1880,1°,1416,11,45832782,temenosespaciodearte@gmail.com,s/d,"Espacio no convencional (tarima, al ras del piso. circular, semicircular) - capacidad sala 2: 40 personas",-34.61194525,-58.45440258,Precisa,,s/d,ESCENA / Proteatro 2017 ,Privado,2010,40,2020
2000010,2,2000,,Salas de Teatro,,Ciudad Autonoma de Buenos Aires,Ciudad Autonoma de Buenos Aires,Ciudad Autonoma de Buenos Aires,Multiespacio Jxi,Gascón 1474,s/d,s/d,s/d,48028998,Bastardagustin@gmail.com,,s/d,-34.593119,-58.42274,Precisa,,s/d,Data Cultura /2021,Privado,0,50,2020
2000010,2,2000,,Salas de Teatro,,Ciudad Autonoma de Buenos Aires,Ciudad Autonoma de Buenos Aires,Ciudad Autonoma de Buenos Aires,Border,Godoy Cruz 1838,s/d,s/d,11,52366183,escuela@border.com.ar,www.border.com.ar,s/d,-34.58653,-58.43262,Precisa,,s/d,Proteatro 2017 / Relevamiento 2017,Privado,0,115,2020
2000010,2,2000,,Salas de Teatro,,Ciudad Autonoma de Buenos Aires,Ciudad Autonoma de Buenos Aires,Ciudad Autonoma de Buenos Aires,Codigo Montesco,Gorriti 3956,s/d,1172,11,39684292,s/d,www.codigomontesco.com.ar,s/d,-34.595414,-58.420619,Precisa,,s/d,Plan Podesta 2020 / Relevamiento SINCA,Privado,0,0,2020
2000010,2,2000,,Salas de Teatro,,Ciudad Autonoma de Buenos Aires,Ciudad Autonoma de Buenos Aires,Ciudad Autonoma de Buenos Aires,Entretelones,Gral. Enrique  Martinez 1427  ,P.B.,1426,11,35298527,info@entretelonesteatro.com.ar,www.entretelonesteatro.com.ar,"Espacio no convencional (tarima, al ras del piso. circular, semicircular)",-34.575161,-58.460766,Precisa,,s/d,Plan Podesta 2020 / Relevamiento SINCA,Privado,2003,35,2020
2000010,2,2000,,Salas de Teatro,,Ciudad Autonoma de Buenos Aires,Ciudad Autonoma de Buenos Aires,Ciudad Autonoma de Buenos Aires,Teatro Beckett,Guardia Vieja 3556,P.B.,1197,11,48675185,teatrobeckett@gmail.com,www.teatrobeckett.com,"Espacio no convencional (tarima, al ras del piso. circular, semicircular)",-34.601927,-58.414809,Precisa,,s/d,Plan Podesta 2020 / Relevamiento SINCA,Privado,2005,79,2020
2000010,2,2000,,Salas de Teatro,,Ciudad Autonoma de Buenos Aires,Ciudad Autonoma de Buenos Aires,Ciudad Autonoma de Buenos Aires,La vieja Guarida,Guardia Vieja 3777,,1288,11,35351609,,www.laviejaguarida.com.ar/,,-34.600989,-58.417374,Precisa,"Teatro,cursos,tallere y seminarios",,Plan Podesta 2020 / Relevamiento SINCA,Privado,2012,40,2020
2000010,2,2000,,Salas de Teatro,,Ciudad Autonoma de Buenos Aires,Ciudad Autonoma de Buenos Aires,Ciudad Autonoma de Buenos Aires,Casa teatro estudio,Guardia Vieja 4257,,1192,11,63002250,teatroestudiocasa@gmail.com,www.casateatroestudio.com/,,-34.600236,-58.42468,Precisa,"Sala, clases y talleres",,Plan Podesta 2020 / Relevamiento SINCA,Privado,,,2020
2000010,2,2000,,Salas de Teatro,,Ciudad Autonoma de Buenos Aires,Ciudad Autonoma de Buenos Aires,Ciudad Autonoma de Buenos Aires,Teatro Buenas Artes,Guatemala 4484,P.B.,1425,11,35312193,teatrobuenasartes@gmail.com,www.bsartes.com.ar,A la italiana,-34.58799,-58.42248,Precisa,,s/d,Plan Podesta 2020 / Relevamiento SINCA,Privado,2013,58,2020
2000010,2,2000,,Salas de Teatro,,Ciudad Autonoma de Buenos Aires,Ciudad Autonoma de Buenos Aires,Ciudad Autonoma de Buenos Aires,Onirico,Guatemala 6084,s/d,s/d,s/d,s/d,palermoonirico@gmail.com.ar,s/d,s/d,-34.57656,-58.4369,Precisa,,s/d,Proteatro 2017 / Relevamiento 2017,Privado,0,50,2020
2000010,2,2000,,Salas de Teatro,,Ciudad Autonoma de Buenos Aires,Ciudad Autonoma de Buenos Aires,Ciudad Autonoma de Buenos Aires,El Galpón de Guevara,Guevara 326,P.B.,1427,11,45544588,galpondeguevara@gmail.com,www.galpondeguevara.com.ar,"Espacio no convencional (tarima, al ras del piso. circular, semicircular)",-34.58733,-58.4495051,Precisa,,s/d,Proteatro 2017 / Relevamiento 2017,Privado,2013,150,2020
2000010,2,2000,,Salas de Teatro,,Ciudad Autonoma de Buenos Aires,Ciudad Autonoma de Buenos Aires,Ciudad Autonoma de Buenos Aires,Club Defensores de Bravard,Gurruchaga 1113,s/d,s/d,11,6677705,estudio.bravard@gmail.com,www.estudiobravard.blogspot.com.ar,"Espacio no convencional (tarima, al ras del piso. circular, semicircular)",-34.59283385,-58.43456023,Precisa,,s/d,Plan Podesta 2020 / Relevamiento SINCA,Privado,0,0,2020
2000010,2,2000,,Salas de Teatro,,Ciudad Autonoma de Buenos Aires,Ciudad Autonoma de Buenos Aires,Ciudad Autonoma de Buenos Aires,El Piso Teatro y Afines,Hidalgo 878,s/d,s/d,11,3565 4520,elpisoteatroyafines@gmail.com,s/d,"Espacio no convencional (tarima, al ras del piso. circular, semicircular) - capacidad sala 2: 48 personas",-34.608936,-58.441268,Precisa,,s/d,Plan Podesta 2020 / Relevamiento SINCA,Privado,2006,48,2020
2000010,2,2000,,Salas de Teatro,,Ciudad Autonoma de Buenos Aires,Ciudad Autonoma de Buenos Aires,Ciudad Autonoma de Buenos Aires,Teatro Empire,Hipólito Yrigoyen 1934,s/d,1089,11,49538254,teatroempire@gmail.com,www.teatroempire.com,A la italiana,-34.610452,-58.393846,Precisa,,s/d,Plan Podesta 2020 / Relevamiento SINCA,Privado,1934,296,2020
2000010,2,2000,,Salas de Teatro,,Ciudad Autonoma de Buenos Aires,Ciudad Autonoma de Buenos Aires,Ciudad Autonoma de Buenos Aires,Medio Mundo Club de Arte,Hipólito Yrigoyen 2148 ,P.B.,s/d,11,49518819,olindolago@sinectis.com.ar,s/d,s/d,-34.610632,-58.396832,Precisa,,s/d,Plan Podesta 2020 / Relevamiento SINCA,Privado,0,50,2020
2000010,2,2000,,Salas de Teatro,,Ciudad Autonoma de Buenos Aires,Ciudad Autonoma de Buenos Aires,Ciudad Autonoma de Buenos Aires,Teatro Luisa Vehil,Hipólito Yrigoyen 3133,P.B.,1207,11,486133861,hernaruben@hotmail.com,www.teatroluidavehil.com,A la italiana - capacidad sala 2: 40 personas; capacidad sala 3: 25 personas,-34.611596,-58.410728,Precisa,,s/d,Plan Podesta 2020 / Relevamiento SINCA,Privado,1988,80,2020
2000010,2,2000,,Salas de Teatro,,Ciudad Autonoma de Buenos Aires,Ciudad Autonoma de Buenos Aires,Ciudad Autonoma de Buenos Aires,La Tangente,Honduras 5317,s/d,s/d,11,48335857,info@latangente.com.ar,www.latangente.com.ar,s/d,-34.58659383,-58.43306191,Precisa,,s/d,Data Cultura /2021,Privado,0,150,2020
2000010,2,2000,,Salas de Teatro,,Ciudad Autonoma de Buenos Aires,Ciudad Autonoma de Buenos Aires,Ciudad Autonoma de Buenos Aires,Espacio Callejón,Humahuaca 3759,s/d,1191,11,48621167,teatrocallejon@yahoo.com.ar,www.espaciocallejon.com,s/d,-34.602285,-58.417322,Precisa,,s/d,Plan Podesta 2020 / Relevamiento SINCA,Privado,0,100,2020
2000010,2,2000,,Salas de Teatro,,Ciudad Autonoma de Buenos Aires,Ciudad Autonoma de Buenos Aires,Ciudad Autonoma de Buenos Aires,Teatro Mandril,Humberto Primo 2758,s/d,s/d,11,43086253,info@teatromandril.com,www.teatromandril.com,s/d,-34.62271,-58.40339,Precisa,,s/d,Plan Podesta 2020 / Relevamiento SINCA,Privado,0,0,2020
2000010,2,2000,,Salas de Teatro,,Ciudad Autonoma de Buenos Aires,Ciudad Autonoma de Buenos Aires,Ciudad Autonoma de Buenos Aires,La Galera,Humboldt 1591,s/d,1414,11,47719295,info@lagaleraencantada.com.ar ,www.lagaleraencantada.com.ar,A la italiana,-34.585725,-58.43633,Precisa,,s/d,Plan Podesta 2020 / Relevamiento SINCA,Privado,1997,99,2020
2000010,2,2000,,Salas de Teatro,,Ciudad Autonoma de Buenos Aires,Ciudad Autonoma de Buenos Aires,Ciudad Autonoma de Buenos Aires,NoAvestruz Espacio de Cultura Independiente,Humboldt 1857,P.B.,1414,11,47776956,hola@noavestruz.com.ar,www.avestruz.org.ar,"Espacio no convencional (tarima, al ras del piso. circular, semicircular)",-34.583682,-58.434074,Precisa,,s/d,Plan Podesta 2020 / Relevamiento SINCA,Privado,2001,70,2020
2000010,2,2000,,Salas de Teatro,,Ciudad Autonoma de Buenos Aires,Ciudad Autonoma de Buenos Aires,Ciudad Autonoma de Buenos Aires,Planta Investigación & Creación Transversal,Inclán 2661,,1258,11,67334653,info@plantainclan.com,,,-34.629999,-58.401681,Precisa,Sala de teatro y danza,,Plan Podesta 2020 / Relevamiento SINCA,Privado,,,2020
2000010,2,2000,,Salas de Teatro,,Ciudad Autonoma de Buenos Aires,Ciudad Autonoma de Buenos Aires,Ciudad Autonoma de Buenos Aires,Circuito Cultural Barracas,Iriarte 2165,P.B.,1289,11,43026825,ccbarracas@speedy.com.ar,www.ccbarracas.com.ar,"Espacio no convencional (tarima, al ras del piso. circular, semicircular)",-34.649129,-58.377779,Precisa,,s/d,Plan Podesta 2020 / Relevamiento SINCA,Privado,1996,100,2020
2000010,2,2000,,Salas de Teatro,,Ciudad Autonoma de Buenos Aires,Ciudad Autonoma de Buenos Aires,Ciudad Autonoma de Buenos Aires,La Carpinteria Teatro,Jean Jaures 858,P.B.,1425,11,49615092,lacarpinteria858@gmail.com,www.lacarpinteriateatro.com.ar,"Espacio no convencional (tarima, al ras del piso. circular, semicircular)",-34.60042,-58.40759,Precisa,,s/d,Plan Podesta 2020 / Relevamiento SINCA,Privado,2010,100,2020
2000010,2,2000,,Salas de Teatro,,Ciudad Autonoma de Buenos Aires,Ciudad Autonoma de Buenos Aires,Ciudad Autonoma de Buenos Aires,Gargantúa,Jorge Newbery 3563,P.B.,1427,11,45555596,teatrogargantua@gmail.com,www.teatrogargantua.com.ar,Cafe concert ,-34.583449,-58.449094,Precisa,,s/d,Plan Podesta 2020 / Relevamiento SINCA,Privado,1999,85,2020
2000010,2,2000,,Salas de Teatro,,Ciudad Autonoma de Buenos Aires,Ciudad Autonoma de Buenos Aires,Ciudad Autonoma de Buenos Aires,Nun Teatro Bar,Juan Ramirez de Velasco 419,,1414,11,48542107,info@nunteatrobar.com.ar,facebook.com/NUNteatrobar/,,-34.598946,-58.436123,Precisa,"Teatro,clases,música",,Plan Podesta 2020 / Relevamiento SINCA,Privado,,,2020
2000010,2,2000,,Salas de Teatro,,Ciudad Autonoma de Buenos Aires,Ciudad Autonoma de Buenos Aires,Ciudad Autonoma de Buenos Aires,El Arenal Teatro SRL,Juan Ramirez de Velasco 444,,1414,11,26051812,contacto@elarenal.com.ar,https://teatroesaccion.com/,,-34.598861,-58.436318,Precisa,"Sala teatral,clases y talleres",,Plan Podesta 2020 / Relevamiento SINCA,Privado,,,2020
2000010,2,2000,,Salas de Teatro,,Ciudad Autonoma de Buenos Aires,Ciudad Autonoma de Buenos Aires,Ciudad Autonoma de Buenos Aires,El Metejón Tango,Juan Ramírez de Velasco 79,,1414,s/d,s/d,info@elmetejontango.com,http://elmetejontango.com/,s/d,-34.60201848,-58.43354567,Precisa,,s/d,Fondo Desarrollar 2020/ Relevamiento SINCA,Privado,0,0,2020
2000010,2,2000,,Salas de Teatro,,Ciudad Autonoma de Buenos Aires,Ciudad Autonoma de Buenos Aires,Ciudad Autonoma de Buenos Aires,Savia Espacio Cultural Teatro,Jufré 127,,1414,11,66417220,,https://www.saviacultural.com/,,-34.597816,-58.430256,Precisa,"Teatro, cursos y talleres",,Plan Podesta 2020 / Relevamiento SINCA,Privado,,60,2020
2000010,2,2000,,Salas de Teatro,,Ciudad Autonoma de Buenos Aires,Ciudad Autonoma de Buenos Aires,Ciudad Autonoma de Buenos Aires,El Jufré Teatro Bar,Jufré 444,,1414,11,30221091,info@eljufre.com.ar,https://eljufre.com.ar/,,-34.595321,-58.432795,Precisa,"Sala teatral,clases y talleres",,Plan Podesta 2020 / Relevamiento SINCA,Privado,,,2020
2000010,2,2000,,Salas de Teatro,,Ciudad Autonoma de Buenos Aires,Ciudad Autonoma de Buenos Aires,Ciudad Autonoma de Buenos Aires,El Opalo,Junín 380,s/d,1026,11,49513392,elopaloteatro@gmail.com,www.elopaloteatro.blogspot.com.ar,s/d,-34.604836,-58.396757,Precisa,,s/d,Plan Podesta 2020 / Relevamiento SINCA,Privado,0,50,2020
2000010,2,2000,,Salas de Teatro,,Ciudad Autonoma de Buenos Aires,Ciudad Autonoma de Buenos Aires,Ciudad Autonoma de Buenos Aires,Teatro Quirón,La Plata 1331,,1250,11,39677339,teatroquiron@gmail.com,facebook.com/teatroquiron,,-34.6308039,-58.4263727,Precisa,Teatro de arte dramático y clases de actuación,,Plan Podesta 2020 / Relevamiento SINCA,Privado,,,2020
2000010,2,2000,,Salas de Teatro,,Ciudad Autonoma de Buenos Aires,Ciudad Autonoma de Buenos Aires,Ciudad Autonoma de Buenos Aires,Cara a Cara,Lascano 2895,P.B.,1417,11,45026456,teatrocaraacara@gmail.com,s/d,A la italiana,-34.606859,-58.485098,Precisa,,s/d,Plan Podesta 2020 / Relevamiento SINCA,Privado,1997,60,2020
2000010,2,2000,,Salas de Teatro,,Ciudad Autonoma de Buenos Aires,Ciudad Autonoma de Buenos Aires,Ciudad Autonoma de Buenos Aires,Sala de Máquinas,Lavalle 1145,Subsuelo,1106,11,68611202,demaquinas.sala@gmail.com,s/d,"Espacio no convencional (tarima, al ras del piso. circular, semicircular)",-34.6019357,-58.3702367,Precisa,,s/d,Proteatro 2017 / Relevamiento 2017,Privado,2017,50,2020
2000010,2,2000,,Salas de Teatro,,Ciudad Autonoma de Buenos Aires,Ciudad Autonoma de Buenos Aires,Ciudad Autonoma de Buenos Aires,El Portal,Lavalle 3073,,1190,11,65219619,elportalteatro@gmail.com,facebook.com/PortalTeatro,,-34.60254,-58.40928,,,,Fondo Desarrollar 2020,Privado,,,2020
2000010,2,2000,,Salas de Teatro,,Ciudad Autonoma de Buenos Aires,Ciudad Autonoma de Buenos Aires,Ciudad Autonoma de Buenos Aires,Espacio Sísmico,Lavalleja 960,s/d,s/d,11,47763490,espaciosismico@gmail.com,www.espaciosismico.com,s/d,-34.59766,-58.42939,Precisa,,s/d,Plan Podesta 2020 / Relevamiento SINCA,Privado,2015,0,2020
2000010,2,2000,,Salas de Teatro,,Ciudad Autonoma de Buenos Aires,Ciudad Autonoma de Buenos Aires,Ciudad Autonoma de Buenos Aires,El Alambique,Lázaro Griveo 2350,s/d,1419,11,45718140,info@teatroelalmbique.com,www.teatroelalambique.com,s/d,-34.58076791,-58.49742633,Precisa,"Teatro,talleres,seminarios",s/d,Plan Podesta 2020 / Relevamiento SINCA,Privado,0,150,2020
2000010,2,2000,,Salas de Teatro,,Ciudad Autonoma de Buenos Aires,Ciudad Autonoma de Buenos Aires,Ciudad Autonoma de Buenos Aires,Espacio Teatral Los Andes,Leiva 4249 ,s/d,s/d,s/d,49539368,s/d,s/d,s/d,-34.59245,-58.4502,Precisa,,s/d,Alternativa Teatral / Relevamiento 2017,Público,0,0,2020
2000010,2,2000,,Salas de Teatro,,Ciudad Autonoma de Buenos Aires,Ciudad Autonoma de Buenos Aires,Ciudad Autonoma de Buenos Aires,El Excéntrico de la 18 ,Lerma 420 ,s/d,1414,11,47751438,excentrico@fibertel.com.ar,www.elexcentricodela18.com.ar,"Espacio no convencional (tarima, al ras del piso. circular, semicircular) - capacidad sala 2: 30 personas",-34.594869,-58.431375,Precisa,,s/d,Plan Podesta 2020 / Relevamiento SINCA,Privado,0,70,2020
2000010,2,2000,,Salas de Teatro,,Ciudad Autonoma de Buenos Aires,Ciudad Autonoma de Buenos Aires,Ciudad Autonoma de Buenos Aires,Patio de Actores,Lerma 568,s/d,1414,11,47729732,patiodeactores@fibertel.com.ar,www.patiodeactores.com,s/d,-34.593478,-58.432688,Precisa,,s/d,Plan Podesta 2020 / Relevamiento SINCA,Privado,0,50,2020
2000010,2,2000,,Salas de Teatro,,Ciudad Autonoma de Buenos Aires,Ciudad Autonoma de Buenos Aires,Ciudad Autonoma de Buenos Aires,Teatro Orfeo,Luis María Campos 1375 ,1°,1426,11,53259611,teatroorfeo@gmail.com,s/d,A la italiana,-34.56392,-58.442225,Precisa,,s/d,Plan Podesta 2020 / Relevamiento SINCA,Privado,2003,30,2020
2000010,2,2000,,Salas de Teatro,,Ciudad Autonoma de Buenos Aires,Ciudad Autonoma de Buenos Aires,Ciudad Autonoma de Buenos Aires,Silencio de Negras,Luis Saenz Peña 663,P.B.,1110,11,43811445,silenciodenegras@gmail.com,s/d,"Espacio no convencional (tarima, al ras del piso. circular, semicircular) - capacidad sala 2: 50 personas",-34.616338,-58.387486,Precisa,,s/d,Plan Podesta 2020 / Relevamiento SINCA,Privado,2003,50,2020
2000010,2,2000,,Salas de Teatro,,Ciudad Autonoma de Buenos Aires,Ciudad Autonoma de Buenos Aires,Ciudad Autonoma de Buenos Aires,Fandango Teatro,Luis Viale 108,s/d,s/d,11,59764525,fandangoteatro@gmail.com,s/d,s/d,-34.60233,-58.44403,Precisa,,s/d,Plan Podesta 2020 / Relevamiento SINCA,Privado,2014,50,2020
2000010,2,2000,,Salas de Teatro,,Ciudad Autonoma de Buenos Aires,Ciudad Autonoma de Buenos Aires,Ciudad Autonoma de Buenos Aires,Movaq Aquelarre en Movimiento,Malabia 852,,1414,11,39804596,estudioaquelarre@yahoo.com.ar,https://www.estudioaquelarre.com.ar/,,-34.595737,-58.434774,Precisa,"Teatro,cursos y talleres",,Plan Podesta 2020 / Relevamiento SINCA,Privado,2020,,2020
2000010,2,2000,,Salas de Teatro,,Ciudad Autonoma de Buenos Aires,Ciudad Autonoma de Buenos Aires,Ciudad Autonoma de Buenos Aires,Espacio TBK . Teatro Buster Keaton ,Manuel Trelles 2033,P.B.,1416,11,45862971,espaciotbk@gmail.com,s/d,"Espacio no convencional (tarima, al ras del piso. circular, semicircular)",-34.604654,-58.465704,Precisa,,s/d,Plan Podesta 2020 / Relevamiento SINCA,Privado,2004,40,2020
2000010,2,2000,,Salas de Teatro,,Ciudad Autonoma de Buenos Aires,Ciudad Autonoma de Buenos Aires,Ciudad Autonoma de Buenos Aires,Querida Elena,Margall 1124,s/d,s/d,s/d,s/d,queridaelena@gmail.com,www.queridaelena.blogspot.com.ar,s/d,-34.63084884,-58.36970429,Precisa,,s/d,Plan Podesta 2020 / Relevamiento SINCA,Privado,0,0,2020
2000010,2,2000,,Salas de Teatro,,Ciudad Autonoma de Buenos Aires,Ciudad Autonoma de Buenos Aires,Ciudad Autonoma de Buenos Aires,Teatro Taller del Ángel,Mario Bravo 1239,P.B.,1175,11,49631571,teatrotallerdelangel@yahoo.com.ar,www.tallerdelangel.com.ar,A la italiana - capacidad sala 2: 30 personas; capacidad sala 3:10 personas,-34.595205,-58.414868,Precisa,,s/d,Plan Podesta 2020 / Relevamiento SINCA,Privado,2005,90,2020
2000010,2,2000,,Salas de Teatro,,Ciudad Autonoma de Buenos Aires,Ciudad Autonoma de Buenos Aires,Ciudad Autonoma de Buenos Aires,Korinthio Teatro,Mario Bravo 437 ,s/d,1175,11,20442400,korinthioteatro@gmail.com,www.korinthioteatro.com.ar,A la italiana,-34.604988,-58.41686975,Precisa,,s/d,Plan Podesta 2020 / Relevamiento SINCA,Privado,2002,60,2020
2000010,2,2000,,Salas de Teatro,,Ciudad Autonoma de Buenos Aires,Ciudad Autonoma de Buenos Aires,Ciudad Autonoma de Buenos Aires,Archibrazo,Mario Bravo 441,s/d,s/d,11,48646412,archivazo@gmail.com,www.archibrazo.org,s/d,-34.60486,-58.41687,Precisa,,s/d,Plan Podesta 2020 / Relevamiento SINCA,Privado,0,84,2020
2000010,2,2000,,Salas de Teatro,,Ciudad Autonoma de Buenos Aires,Ciudad Autonoma de Buenos Aires,Ciudad Autonoma de Buenos Aires,El Tinglado,Mario Bravo 948,s/d,s/d,11,48631188,teatroeltinglado@hotmail.com,www.teatroeltinglado.com.ar,s/d,-34.59867,-58.41617,Precisa,,s/d,Plan Podesta 2020 / Relevamiento SINCA,Privado,0,144,2020
2000010,2,2000,,Salas de Teatro,,Ciudad Autonoma de Buenos Aires,Ciudad Autonoma de Buenos Aires,Ciudad Autonoma de Buenos Aires,El Camarín de las Musas,Mario Bravo 960,s/d,1175,s/d,s/d,emiliocamarin@gmail.com,www.elcamarindelasmusas.com,Capacidad sala 2: 70 personas,-34.598456,-58.416034,Precisa,,s/d,Plan Podesta 2020 / Relevamiento SINCA,Privado,0,70,2020
2000010,2,2000,,Salas de Teatro,,Ciudad Autonoma de Buenos Aires,Ciudad Autonoma de Buenos Aires,Ciudad Autonoma de Buenos Aires,Hasta Trilce,Maza 177,s/d,s/d,11,48621758,s/d,www.hastatrilce.com.ar,s/d,-34.6132726,-58.4163986,Precisa,,s/d,Plan Podesta 2020 / Relevamiento SINCA,Privado,0,0,2020
2000010,2,2000,,Salas de Teatro,,Ciudad Autonoma de Buenos Aires,Ciudad Autonoma de Buenos Aires,Ciudad Autonoma de Buenos Aires,La Maza Teatro,Maza 908,,1220,11,6584 6586,lamazateatro@gmail.com,facebook.com/lamazateatro/,,-34.622456,-58.4149164,Precisa,"Teatro de arte dramático,seminarios",,Plan Podesta 2020 / Relevamiento SINCA,Privado,,,2020
2000010,2,2000,,Salas de Teatro,,Ciudad Autonoma de Buenos Aires,Ciudad Autonoma de Buenos Aires,Ciudad Autonoma de Buenos Aires,El Estepario ,Medrano 484,1°,1179,11,55916879,elesteparioteatro@gmail.com,s/d,"Espacio no convencional (tarima, al ras del piso. circular, semicircular)",-34.60527,-58.42126,Precisa,,s/d,Plan Podesta 2020 / Relevamiento SINCA,Privado,2013,50,2020
2000010,2,2000,,Salas de Teatro,,Ciudad Autonoma de Buenos Aires,Ciudad Autonoma de Buenos Aires,Ciudad Autonoma de Buenos Aires,Puerta Medrano,Medrano 688,,1179,s/d,s/d,puertamedrano@gmail.com,facebook.com/puertamedrano/,,-34.60217751,-58.42096641,,,,Fondo Desarrollar 2020,Privado,,,2020
2000010,2,2000,,Salas de Teatro,,Ciudad Autonoma de Buenos Aires,Ciudad Autonoma de Buenos Aires,Ciudad Autonoma de Buenos Aires,Teatro La Ranchería,México 1152,P.B.,1097,11,43825862,larancheria.teatro@gmail.com,www.teatrolarancheria.org,"Espacio no convencional (tarima, al ras del piso. circular, semicircular)",-34.615334,-58.38237,Precisa,,s/d,Plan Podesta 2020 / Relevamiento SINCA,Privado,1992,54,2020
2000010,2,2000,,Salas de Teatro,,Ciudad Autonoma de Buenos Aires,Ciudad Autonoma de Buenos Aires,Ciudad Autonoma de Buenos Aires,Teatro Calibán,Mexico 1428 ,P.B.,1097,11,43810521,prensacaliban@gmail.com,facebook.com/teatrocaliban/,s/d,-34.615503,-58.386326,Precisa,"Obras, escuela de teatro y talleres",s/d,Plan Podesta 2020 / Relevamiento SINCA,Privado,0,90,2020
2000010,2,2000,,Salas de Teatro,,Ciudad Autonoma de Buenos Aires,Ciudad Autonoma de Buenos Aires,Ciudad Autonoma de Buenos Aires,Teatro Timbre 4,México 3554,1°,1218,11,49316947,timbre4@timbre4.com,www.timbre4.com,"Espacio no convencional (tarima, al ras del piso. circular, semicircular) - capacidad sala 2: 50 personas",-34.61989929,-58.41594078,Precisa,,s/d,Plan Podesta 2020 / Relevamiento SINCA,Privado,2002,147,2020
2000010,2,2000,,Salas de Teatro,,Ciudad Autonoma de Buenos Aires,Ciudad Autonoma de Buenos Aires,Ciudad Autonoma de Buenos Aires,El Desguace. Teatro y Almacén Cultural ,México 3694,s/d,1223,11,39668740,eldesguaceteatro@gmail.com,www.teatroeldesguace.com,"Espacio no convencional (tarima, al ras del piso. circular, semicircular)",-34.619946,-58.418054,Precisa,,s/d,ESCENA / Proteatro 2017 ,Privado,2009,50,2020
2000010,2,2000,,Salas de Teatro,,Ciudad Autonoma de Buenos Aires,Ciudad Autonoma de Buenos Aires,Ciudad Autonoma de Buenos Aires,Centro Latinoamericano de Creación e Investigación Teatral CELCIT ,Moreno 431,s/d,1091,11,43421026,correo@celcit.org.ar,www.celcit.org.ar,"Espacio no convencional (tarima, al ras del piso. circular, semicircular)",-34.61123942,-58.3724569,Precisa,,s/d,Plan Podesta 2020 / Relevamiento SINCA,Privado,1975,80,2020
2000010,2,2000,,Salas de Teatro,,Ciudad Autonoma de Buenos Aires,Ciudad Autonoma de Buenos Aires,Ciudad Autonoma de Buenos Aires,Mil80Teatro,Muñecas 1080,,1414,11,28588117,,facebook.com/mil80teatro/,,-34.5982567,-58.4485099,Precisa,"Teatro,espectáculos musicales",,Plan Podesta 2020 / Relevamiento SINCA,Privado,,,2020
2000010,2,2000,,Salas de Teatro,,Ciudad Autonoma de Buenos Aires,Ciudad Autonoma de Buenos Aires,Ciudad Autonoma de Buenos Aires,Pasillo al Fondo,Muñiz 1288,,1255,11,49229133,pasilloalfondoespaciocultural@gmail.com,facebook.com/pasilloalfondoteatro/,,-34.6290097,-58.4251203,Precisa,"Sala de teatro,sala de ensayo,espacio de arte",,Plan Podesta 2020 / Relevamiento SINCA,Privado,,,2020
2000010,2,2000,,Salas de Teatro,,Ciudad Autonoma de Buenos Aires,Ciudad Autonoma de Buenos Aires,Ciudad Autonoma de Buenos Aires,Chacarerean Teatre,Nicaragua 5565,P.B.,1414,11,47759010,info@chacarereanteatre.com.ar,www.chacarereanteatre.com.ar,A la italiana,-34.581963,-58.433161,Precisa,,s/d,Plan Podesta 2020 / Relevamiento SINCA,Privado,2003,176,2020
2000010,2,2000,,Salas de Teatro,,Ciudad Autonoma de Buenos Aires,Ciudad Autonoma de Buenos Aires,Ciudad Autonoma de Buenos Aires,Tadron Teatro,Niceto Vega 4802,P.B.,1414,11,47777976,tadronteatro@hotmail.com,www.tadronteatro.com.ar,"Espacio no convencional (tarima, al ras del piso. circular, semicircular)",-34.592176,-58.431457,Precisa,,s/d,Plan Podesta 2020 / Relevamiento SINCA,Privado,1996,50,2020
2000010,2,2000,,Salas de Teatro,,Ciudad Autonoma de Buenos Aires,Ciudad Autonoma de Buenos Aires,Ciudad Autonoma de Buenos Aires,Espacio Cultural Carlos Gardel,Olleros 3640,s/d,s/d,11,45524229,ecarlosgardel@buenosaires.gob.ar,s/d,s/d,-34.58254,-58.4508,Precisa,,s/d,Data Cultura /2021,Público,0,180,2020
2000010,2,2000,,Salas de Teatro,,Ciudad Autonoma de Buenos Aires,Ciudad Autonoma de Buenos Aires,Ciudad Autonoma de Buenos Aires,Paraje Arteson,Palestina 919,s/d,1182,11,32881008,paraje.arteson@gmail.com,www.parajearteson.com.ar,"Espacio no convencional (tarima, al ras del piso. circular, semicircular)",-34.59992,-58.4252,Precisa,,s/d,Plan Podesta 2020 / Relevamiento SINCA,Privado,2009,49,2020
2000010,2,2000,,Salas de Teatro,,Ciudad Autonoma de Buenos Aires,Ciudad Autonoma de Buenos Aires,Ciudad Autonoma de Buenos Aires,Teatro Andamio ´90,Paraná 660,P.B.,s/d,11,43735670,andamio90espectaculos@gmail.com,www.andamio90.org,A la italiana,-34.601087,-58.388081,Precisa,,s/d,Plan Podesta 2020 / Relevamiento SINCA,Privado,1990,145,2020
2000010,2,2000,,Salas de Teatro,,Ciudad Autonoma de Buenos Aires,Ciudad Autonoma de Buenos Aires,Ciudad Autonoma de Buenos Aires,El Fino,Paraná 673 ,1°,1017,11,43722428,teatroelfino@yahoo.com.ar,www.teatroelfi.com.ar,Capacidad sala 2: 30 personas,-34.600936,-58.388084,Precisa,,s/d,Plan Podesta 2020 / Relevamiento SINCA,Privado,0,49,2020
2000010,2,2000,,Salas de Teatro,,Ciudad Autonoma de Buenos Aires,Ciudad Autonoma de Buenos Aires,Ciudad Autonoma de Buenos Aires,Espacio Abierto,Pasaje Carabelas 255,1°,1009,11,43281903,espacioabierto@roxanarandon.com.ar,www.roxanarandon.com.ar,A la italiana,-34.605438,-58.380288,Precisa,,s/d,Plan Podesta 2020 / Relevamiento SINCA,Privado,2002,60,2020
2000010,2,2000,,Salas de Teatro,,Ciudad Autonoma de Buenos Aires,Ciudad Autonoma de Buenos Aires,Ciudad Autonoma de Buenos Aires,Teatro Picadero,Pasaje Enrique Santos Discépolo 1857,P.B.,1051,11,51995793,info@teatropicadero.com.ar,www.teatropicadero.com.ar,Anfiteatro / Al aire libre,-34.603714,-58.393106,Precisa,,s/d,AADET /Proteatro 2017,Privado,2012,286,2020
2000010,2,2000,,Salas de Teatro,,Ciudad Autonoma de Buenos Aires,Ciudad Autonoma de Buenos Aires,Ciudad Autonoma de Buenos Aires,Carlos Trigo               ,Pasaje La selva 4022,s/d,1407,11,46725708,cclaselva@hotmail.com,s/d,s/d,-34.637807,-58.482331,Precisa,,s/d,Plan Podesta 2020 / Relevamiento SINCA,Privado,0,70,2020
2000010,2,2000,,Salas de Teatro,,Ciudad Autonoma de Buenos Aires,Ciudad Autonoma de Buenos Aires,Ciudad Autonoma de Buenos Aires,Teatro Colonial,Paseo Colón 413,P.B.,1063,11,43427958,colonial@colonialteatro.com.ar,www.colonialteatro.com.ar,A la italiana,-34.61248,-58.369472,Precisa,,s/d,Plan Podesta 2020 / Relevamiento SINCA,Privado,1946,132,2020
2000010,2,2000,,Salas de Teatro,,Ciudad Autonoma de Buenos Aires,Ciudad Autonoma de Buenos Aires,Ciudad Autonoma de Buenos Aires,Espacio Tole Tole Teatro,Pasteur 683,P.B.,1028,11,39724042,espaciotoletole@gmail.com,www.espaciotoeltole.com.ar,"Espacio no convencional (tarima, al ras del piso. circular, semicircular)",-34.60144,-58.39974,Precisa,,s/d,Plan Podesta 2020 / Relevamiento SINCA,Privado,2013,40,2020
2000010,2,2000,,Salas de Teatro,,Ciudad Autonoma de Buenos Aires,Ciudad Autonoma de Buenos Aires,Ciudad Autonoma de Buenos Aires,La Fábrica de Explosiones,Pavón 4018,,1253,11,68122512,lafabricadeexplosiones@hotmail.com,facebook.com/lafabricadeexplosiones/,,-34.630844,-58.420806,Precisa,"Teatro,clases de teatro,música",,Plan Podesta 2020 / Relevamiento SINCA,Privado,,,2020
2000010,2,2000,,Salas de Teatro,,Ciudad Autonoma de Buenos Aires,Ciudad Autonoma de Buenos Aires,Ciudad Autonoma de Buenos Aires,Teatro Carnero,Pedro Lozano 4707,,1417,11,45670080,teatro.carnero@gmail.com,facebook.com/teatro.carnero/,,-34.6117967,-58.5127474,Precisa,Sala de teatro y talleres,,Plan Podesta 2020 / Relevamiento SINCA,Privado,,,2020
2000010,2,2000,,Salas de Teatro,,Ciudad Autonoma de Buenos Aires,Ciudad Autonoma de Buenos Aires,Ciudad Autonoma de Buenos Aires,Casa Pichincha,Pichincha 674,,1219,11,23773474,,facebook.com/casapichincha/,,-34.61703,-58.39894,,Sala de eventos culturales,,Plan Podesta 2020 / Relevamiento SINCA,Privado,,,2020
2000010,2,2000,,Salas de Teatro,,Ciudad Autonoma de Buenos Aires,Ciudad Autonoma de Buenos Aires,Ciudad Autonoma de Buenos Aires,La Máscara,Piedras 736,s/d,1070,11,43070566,lamascara_teatro06@yahoo.com.ar,www.lamascara-teatro.blogspot.com,A la italiana,-34.616701,-58.377412,Precisa,,s/d,Plan Podesta 2020 / Relevamiento SINCA,Privado,2000,165,2020
2000010,2,2000,,Salas de Teatro,,Ciudad Autonoma de Buenos Aires,Ciudad Autonoma de Buenos Aires,Ciudad Autonoma de Buenos Aires,Artilugio Teatro,Presidente Teniente General Juan DomingoPerón 4231,,1199,11,49148340,artilugioteatro@gmail.com,facebook.com/ArtilugioTeatro,,-34.605893,-58.4267365,Precisa,"Teatro,casa de arte y salas de ensayo",,Plan Podesta 2020 / Relevamiento SINCA,Privado,,,2020
2000010,2,2000,,Salas de Teatro,,Ciudad Autonoma de Buenos Aires,Ciudad Autonoma de Buenos Aires,Ciudad Autonoma de Buenos Aires,Auditorio San Rafael ,Ramallo  2606,s/d,s/d,11,47029888,s/d,s/d,Auditorio,-34.543761,-58.474865,Precisa,,s/d,Data Cultura /2021,Público,0,0,2020
2000010,2,2000,,Salas de Teatro,,Ciudad Autonoma de Buenos Aires,Ciudad Autonoma de Buenos Aires,Ciudad Autonoma de Buenos Aires,MU  Trinchera Boutique,Riobamba 143,,1025,11,52540766,mutrincheraboutique@gmail.com.,facebook.com/mutrincheraboutique,,-34.607648,-58.393467,Precisa,"Sala teatral,danzas,clases",,Plan Podesta 2020 / Relevamiento SINCA,Privado,,150,2020
2000010,2,2000,,Salas de Teatro,,Ciudad Autonoma de Buenos Aires,Ciudad Autonoma de Buenos Aires,Ciudad Autonoma de Buenos Aires,El Bululú,Rivadavia. Av. 1350,s/d,1033,11,31581897,alfonsojl@hotmail.com,www.elbululuteatro.com.ar,s/d,-34.608741,-58.385566,Precisa,,s/d,Plan Podesta 2020 / Relevamiento SINCA,Privado,0,100,2020
2000010,2,2000,,Salas de Teatro,,Ciudad Autonoma de Buenos Aires,Ciudad Autonoma de Buenos Aires,Ciudad Autonoma de Buenos Aires,Sr. Duncan Multiespacio Cultural,Rivadavia. Av. 3832,s/d,s/d,11,49583633,seniorduncan@gmail.com,s/d,s/d,-34.61136597,-58.42009662,Precisa,,s/d,Data Cultura /2021,Privado,2011,95,2020
2000010,2,2000,,Salas de Teatro,,Ciudad Autonoma de Buenos Aires,Ciudad Autonoma de Buenos Aires,Ciudad Autonoma de Buenos Aires,La Fragua Cultural,Rivadavia. Av. 4127,s/d,s/d,11,49835203,lafraguacultural@gmail.com,www.lafraguacultural.com,s/d,-34.61277,-58.42397,Precisa,,s/d,Data Cultura /2021,Privado,0,0,2020
2000010,2,2000,,Salas de Teatro,,Ciudad Autonoma de Buenos Aires,Ciudad Autonoma de Buenos Aires,Ciudad Autonoma de Buenos Aires,El Vitral,Rodriguez Peña 344,s/d,1020,11,43710948,moni_martinez2712@yahoo.com.ar,www.teatroelvitral.com,Capacidad sala 2: 75 personas ;  capacidad sala 3: 35 personas,-34.605032,-58.390811,Precisa,,s/d,Plan Podesta 2020 / Relevamiento SINCA,Privado,0,110,2020
2000010,2,2000,,Salas de Teatro,,Ciudad Autonoma de Buenos Aires,Ciudad Autonoma de Buenos Aires,Ciudad Autonoma de Buenos Aires,Mitad del Mundo,Rojas 470,s/d,s/d,11,31933271,espaciomdm@gmail.com,s/d,s/d,-34.61553,-58.44368,Precisa,,s/d,Data Cultura /2021,Privado,0,0,2020
2000010,2,2000,,Salas de Teatro,,Ciudad Autonoma de Buenos Aires,Ciudad Autonoma de Buenos Aires,Ciudad Autonoma de Buenos Aires,Teatro del Pueblo,Roque Sáenz Peña 943,Subsuelo,1035,11,43263606,teatrodelpueblosomi@gmail.com,www.teatrodelpueblo.org.ar,A la italiana - Capacidad sala 2: 65 personas,-34.604467,-58.38022,Precisa,,s/d,Plan Podesta 2020 / Relevamiento SINCA,Privado,1930,179,2020
2000010,2,2000,,Salas de Teatro,,Ciudad Autonoma de Buenos Aires,Ciudad Autonoma de Buenos Aires,Ciudad Autonoma de Buenos Aires,Roseti,Roseti 722,s/d,s/d,11,51790527,rosetiespacio@gmail.com,s/d,"Espacio no convencional (tarima, al ras del piso. circular, semicircular)",-34.58321,-58.4532,Precisa,,s/d,Plan Podesta 2020 / Relevamiento SINCA,Privado,2015,90,2020
2000010,2,2000,,Salas de Teatro,,Ciudad Autonoma de Buenos Aires,Ciudad Autonoma de Buenos Aires,Ciudad Autonoma de Buenos Aires,Gallo Rojo Espacio Cultural,s/d,,,s/d,s/d,gallorojoteatro@gmail.com,facebook.com/gallorojocultural/,,-34.61092523,-58.3887254,Localización centroide,"Teatro, Talleres de Teatro",,Plan Podesta 2020 / Relevamiento SINCA,Privado,,,2020
2000010,2,2000,,Salas de Teatro,,Ciudad Autonoma de Buenos Aires,Ciudad Autonoma de Buenos Aires,Ciudad Autonoma de Buenos Aires,"Pequeño Espacio Teatral ""Saavedra""",s/d,,,s/d,s/d,,,,-34.61092523,-58.3887254,Localización centroide,,,Fondo Desarrollar 2020,Privado,,,2020
2000010,2,2000,,Salas de Teatro,,Ciudad Autonoma de Buenos Aires,Ciudad Autonoma de Buenos Aires,Ciudad Autonoma de Buenos Aires,Centro Cultural El Deseo,Saavedra 569 ,1°,1269,11,49414954,cceldeseo@gmail.com,s/d,"Espacio no convencional (tarima, al ras del piso. circular, semicircular) - capacidad sala 2: 30 personas",-34.61632676,-58.40289149,Precisa,,s/d,Plan Podesta 2020 / Relevamiento SINCA,Privado,2012,30,2020
2000010,2,2000,,Salas de Teatro,,Ciudad Autonoma de Buenos Aires,Ciudad Autonoma de Buenos Aires,Ciudad Autonoma de Buenos Aires,Espacio Gadí,San Juan. Av.  3852  ,s/d,1237,11,41582397,espaciogadi@gmail.com,s/d,A la italiana,-34.62606824,-58.41950616,Precisa,,s/d,Plan Podesta 2020 / Relevamiento SINCA,Privado,2012,53,2020
2000010,2,2000,,Salas de Teatro,,Ciudad Autonoma de Buenos Aires,Ciudad Autonoma de Buenos Aires,Ciudad Autonoma de Buenos Aires,Teatro Payro,San Martín 766,P.B.,1004,11,43125922,payroelkafka@gmail.com,www.teatropayro.com.ar,A la italiana,-34.599034,-58.374166,Precisa,,s/d,Plan Podesta 2020 / Relevamiento SINCA,Privado,1952,120,2020
2000010,2,2000,,Salas de Teatro,,Ciudad Autonoma de Buenos Aires,Ciudad Autonoma de Buenos Aires,Ciudad Autonoma de Buenos Aires,El Portón de Sanchez,Sanchez de Bustamante 1034,P.B.,1173,11,48632848,srkastro@yahoo.com.ar,s/d,"Espacio no convencional (tarima, al ras del piso. circular, semicircular)",-34.598782,-58.413459,Precisa,,s/d,Plan Podesta 2020 / Relevamiento SINCA,Privado,2000,98,2020
2000010,2,2000,,Salas de Teatro,,Ciudad Autonoma de Buenos Aires,Ciudad Autonoma de Buenos Aires,Ciudad Autonoma de Buenos Aires,El Cuervo,Santiago del Estero 433,s/d,1075,11,43847320,teatroelcuervo@gmail.com,www.teatroelcuervo.com.ar,Capacidad sala 2: 30 personas,-34.613716,-58.384632,Precisa,"Producciones Teatrales,talleres de teatro",s/d,Plan Podesta 2020 / Relevamiento SINCA,Privado,0,50,2020
2000010,2,2000,,Salas de Teatro,,Ciudad Autonoma de Buenos Aires,Ciudad Autonoma de Buenos Aires,Ciudad Autonoma de Buenos Aires,Santos Dumont 4040,Santos Dumont 4040,s/d,1427,s/d,s/d,programacion@santos4040.com.ar,www.santos4040.com.ar,s/d,-34.58865704,-58.44989365,Precisa,Obras de teatro,s/d,Plan Podesta 2020 / Relevamiento SINCA,Privado,0,240,2020
2000010,2,2000,,Salas de Teatro,,Ciudad Autonoma de Buenos Aires,Ciudad Autonoma de Buenos Aires,Ciudad Autonoma de Buenos Aires,Teatro del Artefacto,Sarandí 760,s/d,s/d,11,43083353,marielbignasco@yahoo.com.ar,s/d,s/d,-34.617806,-58.394502,Precisa,,s/d,Plan Podesta 2020 / Relevamiento SINCA,Privado,0,81,2020
2000010,2,2000,,Salas de Teatro,,Ciudad Autonoma de Buenos Aires,Ciudad Autonoma de Buenos Aires,Ciudad Autonoma de Buenos Aires,El Espión,Sarandi 766,s/d,1226,11,49436516,espionsala@gmail.com,www.escuelitadeteatro.com.ar,A la italiana,-34.617877,-58.394499,Precisa,,s/d,Plan Podesta 2020 / Relevamiento SINCA,Privado,1998,40,2020
2000010,2,2000,,Salas de Teatro,,Ciudad Autonoma de Buenos Aires,Ciudad Autonoma de Buenos Aires,Ciudad Autonoma de Buenos Aires,La Sede Teatro,Sarmiento 1495,s/d,1414,11,53442272,lasedeteatro@gmail.com,www.lasedeteatro.com,"Espacio no convencional (tarima, al ras del piso. circular, semicircular)",-34.60533069,-58.38776061,Precisa,,s/d,Plan Podesta 2020 / Relevamiento SINCA,Privado,2012,35,2020
2000010,2,2000,,Salas de Teatro,,Ciudad Autonoma de Buenos Aires,Ciudad Autonoma de Buenos Aires,Ciudad Autonoma de Buenos Aires,Teatro El Trompo,Sarmiento 3235,,1196,11,20657806,culturadetrompo@gmail.com,https://garabitogustavo.wixsite.com/,,-34.606402,-58.4117,Precisa,"Teatro,Clases,FuncionesSala de ensayo",,Plan Podesta 2020 / Relevamiento SINCA,Privado,,,2020
2000010,2,2000,,Salas de Teatro,,Ciudad Autonoma de Buenos Aires,Ciudad Autonoma de Buenos Aires,Ciudad Autonoma de Buenos Aires,Espacio Kabuki,Scalabrini Ortíz 276 ,s/d,1414,11,60518787,info@kabuki.com.ar,www.kabuki.com.ar,s/d,-34.60001,-58.43914,Precisa,,s/d,Proteatro 2017 / Relevamiento 2017,Privado,0,40,2020
2000010,2,2000,,Salas de Teatro,,Ciudad Autonoma de Buenos Aires,Ciudad Autonoma de Buenos Aires,Ciudad Autonoma de Buenos Aires,El Crisol,Scalabrini Ortíz 657 ,P.B.,s/d,s/d,s/d,crisolteatro@gmail.com,s/d,s/d,-34.5975,-58.43485,Precisa,,s/d,Plan Podesta 2020 / Relevamiento SINCA,Privado,0,99,2020
2000010,2,2000,,Salas de Teatro,,Ciudad Autonoma de Buenos Aires,Ciudad Autonoma de Buenos Aires,Ciudad Autonoma de Buenos Aires,Teatro Río Colorado,Segurola 2355,P.B.,1417,11,45664440,normalicht@hotmail.com,s/d,"Espacio no convencional (tarima, al ras del piso. circular, semicircular)",-34.614578,-58.505732,Precisa,"Teatro,escuela,talleres de formación actoral",s/d,Plan Podesta 2020 / Relevamiento SINCA,Privado,1997,50,2020
2000010,2,2000,,Salas de Teatro,,Ciudad Autonoma de Buenos Aires,Ciudad Autonoma de Buenos Aires,Ciudad Autonoma de Buenos Aires,Espacio Lavallen,Solís 1125,s/d,s/d,11,41931813,espaciolavallen@gmail.com,www.espaciolavallen.blogspot.com,s/d,-34.62178,-58.39017,Precisa,,s/d,Alternativa Teatral / Relevamiento 2017,Privado,0,0,2020
2000010,2,2000,,Salas de Teatro,,Ciudad Autonoma de Buenos Aires,Ciudad Autonoma de Buenos Aires,Ciudad Autonoma de Buenos Aires,Sala de Teatro Ana Frank,Superí 2639,,1430,11,35338505,,http://centroanafrank.com.ar/,,-34.562875,-58.470815,Precisa,"Teatro,Museo,muestras fotográficas",,Plan Podesta 2020 / Relevamiento SINCA,Privado,,,2020
2000010,2,2000,,Salas de Teatro,,Ciudad Autonoma de Buenos Aires,Ciudad Autonoma de Buenos Aires,Ciudad Autonoma de Buenos Aires,El Astrolabio Teatro,Terrero 1456,s/d,s/d,11,45810710,info@periplo-teatro.com.ar,s/d,s/d,-34.61136,-58.46423,Precisa,,s/d,Plan Podesta 2020 / Relevamiento SINCA,Privado,0,53,2020
2000010,2,2000,,Salas de Teatro,,Ciudad Autonoma de Buenos Aires,Ciudad Autonoma de Buenos Aires,Ciudad Autonoma de Buenos Aires,Sportivo Teatral,Thames 1426,P.B.,1414,11,48333585,sportivoteatral@hotmail.com,www.sportivoteatral.com.ar,"Espacio no convencional (tarima, al ras del piso. circular, semicircular)",-34.589209,-58.432862,Precisa,,s/d,Plan Podesta 2020 / Relevamiento SINCA,Privado,1986,80,2020
2000010,2,2000,,Salas de Teatro,,Ciudad Autonoma de Buenos Aires,Ciudad Autonoma de Buenos Aires,Ciudad Autonoma de Buenos Aires,Espacio 33,Treinta y Tres Orientales 1119,s/d,s/d,11,20884456,33espacio@gmail.com,s/d,s/d,-34.62803652,-58.42253135,Precisa,,s/d,Plan Podesta 2020 / Relevamiento SINCA,Privado,2016,0,2020
2000010,2,2000,,Salas de Teatro,,Ciudad Autonoma de Buenos Aires,Ciudad Autonoma de Buenos Aires,Ciudad Autonoma de Buenos Aires,Brilla Cordelia,Tte. Gral. Juan Domingo Perón 1926,P.B.,1040,11,39727626,brillacordelia@gmail.com,s/d,"Espacio no convencional (tarima, al ras del piso. circular, semicircular) - capacidad sala 2: 40 personas",-34.60697,-58.39391,Precisa,,s/d,Plan Podesta 2020 / Relevamiento SINCA,Privado,2009,40,2020
2000010,2,2000,,Salas de Teatro,,Ciudad Autonoma de Buenos Aires,Ciudad Autonoma de Buenos Aires,Ciudad Autonoma de Buenos Aires,Habitar Gómez ,Valentín Gómez 3155,1°,1191,11,48629910,habitargomez@gmail.com,s/d,"Espacio no convencional (tarima, al ras del piso. circular, semicircular)",-34.60510206,-58.41012817,Precisa,,s/d,Plan Podesta 2020 / Relevamiento SINCA,Privado,2009,50,2020
2000010,2,2000,,Salas de Teatro,,Ciudad Autonoma de Buenos Aires,Ciudad Autonoma de Buenos Aires,Ciudad Autonoma de Buenos Aires,Teatro El Extranjero,Valentín Gómez 3380,P.B.,1191,11,48627400,elextranjero@elextranjeroteatro.com,www.elextranjeroteatro.com,A la italiana,-34.6052,-58.41302,Precisa,,s/d,Plan Podesta 2020 / Relevamiento SINCA,Privado,2010,47,2020
2000010,2,2000,,Salas de Teatro,,Ciudad Autonoma de Buenos Aires,Ciudad Autonoma de Buenos Aires,Ciudad Autonoma de Buenos Aires,El Ghueto,Venezuela 1557,s/d,s/d,11,64295819,brenda_peluffo@hotmail.com,www.companiadeteatroelghetto.blogspot.com.ar,s/d,-34.6146,-58.38835,Precisa,,s/d,Proteatro 2017 / Relevamiento 2017,Privado,2014,47,2020
2000010,2,2000,,Salas de Teatro,,Ciudad Autonoma de Buenos Aires,Ciudad Autonoma de Buenos Aires,Ciudad Autonoma de Buenos Aires,Teatro Anfitrión,Venezuela 3340,s/d,1211,11,49312124,bertagoldenberg@fibertel.com.ar,www.anfitrionteatro.com.ar,s/d,-34.616624,-58.413346,Precisa,,s/d,Plan Podesta 2020 / Relevamiento SINCA,Privado,2000,80,2020
2000010,2,2000,,Salas de Teatro,,Ciudad Autonoma de Buenos Aires,Ciudad Autonoma de Buenos Aires,Ciudad Autonoma de Buenos Aires,Caras y Caretas San Telmo,Venezuela 370,s/d,1095,11,53546618,centrocultural@carasycaretas.org.ar,www.carasycaretas.org,s/d,-34.61362,-58.371521,Precisa,,s/d,Argentores / Relevamiento 2017,Privado,0,0,2020
2000010,2,2000,,Salas de Teatro,,Ciudad Autonoma de Buenos Aires,Ciudad Autonoma de Buenos Aires,Ciudad Autonoma de Buenos Aires,Vera Vera Teatro,Vera 108,s/d,1414,11,48543655,rubensabadini@hotmail.com,www.veraverateatro.blogspot.com.ar,s/d,-34.602249,-58.434569,Precisa,,s/d,Plan Podesta 2020 / Relevamiento SINCA,Privado,0,50,2020
2000010,2,2000,,Salas de Teatro,,Ciudad Autonoma de Buenos Aires,Ciudad Autonoma de Buenos Aires,Ciudad Autonoma de Buenos Aires,Escuela de teatro musical y danzas Fundación Julio Bocca,Viamonte 575,,1053,11,43157222,fundacio@fundacionjuliobocca.org.ar,http://www.fundacionjuliobocca.org.ar,,-34.59896942,-58.37479,,,,Fondo Desarrollar 2020,Privado,,,2020
2000010,2,2000,,Salas de Teatro,,Ciudad Autonoma de Buenos Aires,Ciudad Autonoma de Buenos Aires,Ciudad Autonoma de Buenos Aires,La Soderia Espacio Artístico Fabril,Vidal 2549,P.B.,1428,11,45431728,la_soderia@yahoo.com.ar,s/d,"Espacio no convencional (tarima, al ras del piso. circular, semicircular) - Capacidad sala 2: 45 personas; capacidad sala 3: 35 personas",-34.560078,-58.463903,Precisa,,s/d,Plan Podesta 2020 / Relevamiento SINCA,Privado,2001,90,2020
2000010,2,2000,,Salas de Teatro,,Ciudad Autonoma de Buenos Aires,Ciudad Autonoma de Buenos Aires,Ciudad Autonoma de Buenos Aires,Teatro Espíritu Mamut,Warnes 616,,1414,s/d,s/d,teatroespiritumamut@gmail.com,facebook.com/EspirituMamutTeatro/,,-34.6012007,-58.44494929,,,,Fondo Desarrollar 2020,Privado,,,2020
2000010,2,2000,,Salas de Teatro,,Ciudad Autonoma de Buenos Aires,Ciudad Autonoma de Buenos Aires,Ciudad Autonoma de Buenos Aires,Felisberto Teatro,Yatay 112 ,,1170,s/d,s/d,s/d,s/d,,-34.61302,-58.42854,,Presentación de Obras,,Plan Podesta 2020 / Relevamiento SINCA,Privado,,,2020
2000010,2,2000,,Salas de Teatro,,Ciudad Autonoma de Buenos Aires,Ciudad Autonoma de Buenos Aires,Ciudad Autonoma de Buenos Aires,Abasto Social Club,Yatay 666,s/d,s/d,s/d,s/d,valeriacasielles@hotmail.com,s/d,s/d,-34.60446876,-58.42899755,Precisa,,s/d,Plan Podesta 2020 / Relevamiento SINCA,Privado,0,60,2020
2000010,2,2000,,Salas de Teatro,,Ciudad Autonoma de Buenos Aires,Ciudad Autonoma de Buenos Aires,Ciudad Autonoma de Buenos Aires,La Gloria Espacio Teatral,Yatay 890,P.B.,s/d,11,35274420,lagloriaespacioteatral@gmail.com,www.lagloriateatral.com,"Espacio no convencional (tarima, al ras del piso. circular, semicircular)",-34.60132,-58.42851,Precisa,,s/d,Plan Podesta 2020 / Relevamiento SINCA,Privado,2014,35,2020
2000010,2,2000,,Salas de Teatro,,Ciudad Autonoma de Buenos Aires,Ciudad Autonoma de Buenos Aires,Ciudad Autonoma de Buenos Aires,Teatro Ciego,Zelaya 3006,P.B.,1171,11,63798596,info@teatrociego.com,www.teatrociego.org,"Espacio no convencional (tarima, al ras del piso. circular, semicircular)",-34.602008,-58.408181,Precisa,,s/d,Plan Podesta 2020 / Relevamiento SINCA,Privado,2008,80,2020
2000010,2,2000,,Salas de Teatro,,Ciudad Autonoma de Buenos Aires,Ciudad Autonoma de Buenos Aires,Ciudad Autonoma de Buenos Aires,Asterion Teatro,Zelaya 3122,,1171,s/d,s/d,asterionteatro@hotmail.com,facebook.com/asterionteatro/,,-34.60179,-58.40995,,,,Fondo Desarrollar 2020,Privado,,,2020
2000010,2,2000,,Salas de Teatro,,Ciudad Autonoma de Buenos Aires,Ciudad Autonoma de Buenos Aires,Ciudad Autonoma de Buenos Aires,Zelaya,Zelaya 3134,s/d,s/d,s/d,s/d,fleonzo14@gmail.com.ar,s/d,s/d,-34.6016,-58.41002,Precisa,,s/d,Plan Podesta 2020 / Relevamiento SINCA,Privado,0,50,2020
6028010,6,6028,,Salas de Teatro,,Buenos Aires,Almirante Brown,Almirante Brown,Espacio Cultural Superarte,Belgrano 1705,s/d,1854,11,42337922,espaciosuperarte@gmail.com,s/d,s/d,-34.860612,-58.39204,Precisa,,s/d,Plan Podesta 2020 / Relevamiento SINCA,Privado,0,0,2020
6042010,6,6042,,Salas de Teatro,,Buenos Aires,Ayacucho,Ayacucho,La Casa del Teatro de Ayacucho,Rivadavia 854,,7150,s/d,s/d,,,,-37.15616,-58.48813,,"Teatro,clases",,Plan Podesta 2020 / Relevamiento SINCA,Privado,,,2020
6049020,6,6049,,Salas de Teatro,,Buenos Aires,Azul,Azul,Espacio Cultural La Criba,Bogliano 628,P.B.,7300,2281,536759,lacriba@gmail.com,www.espacioculturallacriba.blogspot.com,s/d,-36.77636,-59.85552,Precisa,"Sala teatral,seminarios,talleres",s/d,Plan Podesta 2020 / Relevamiento SINCA,Privado,2006,60,2020
6049020,6,6049,,Salas de Teatro,,Buenos Aires,Azul,Azul,LA SALITA. Vivero Cultural Otoño Azul,Malere 567,,7300,s/d,s/d,,,,-36.77624,-59.85746,Precisa,Sala y producción de obras,,Plan Podesta 2020 / Relevamiento SINCA,Privado,,,2020
6056010,6,6056,,Salas de Teatro,,Buenos Aires,Bahía Blanca,Bahía Blanca,Espacio Juanita Primera,Alvarado 818,,8000,s/d,s/d,espaciojuanitaprimera@hotmail.com,http://juanitaprimera.com.ar/,,-38.708315,-62.271273,Precisa,Sala de teatro.Espacio de enseñanza y formacion teatral,,Plan Podesta 2020 / Relevamiento SINCA,Privado,2013,,2020
6056010,6,6056,,Salas de Teatro,,Buenos Aires,Bahía Blanca,Bahía Blanca,Teatro Variette,Villarino 214,s/d,8000,291,6495298,s/d,s/d,s/d,-38.72516,-62.26398,Precisa,,s/d,Plan Podesta 2020 / Relevamiento SINCA,Privado,0,0,2020
6091010,6,6091,,Salas de Teatro,,Buenos Aires,Berazategui,Berazategui,Indigo,Calle 144 nº 1536,s/d,1884,11,64642768,indigoesteatro@gmail.com,s/d,s/d,-34.76524,-58.21228,Precisa,,s/d,Plan Podesta 2020 / Fondo Desarrollar 2020/Relevamiento SINCA,Privado,2012,0,2020
6105060,6,6105,,Salas de Teatro,,Buenos Aires,Bolívar,San Carlos de Bolívar,Grupo Artecon Sala El Taller,Avellaneda 730,,6550,s/d,s/d,grupoartecon@speedy.com.ar,facebook.com/GrupoArtecon,,-36.228064,-61.111454,Precisa,Presentación de obras teatrales,,Plan Podesta 2020 / Relevamiento SINCA,Privado,1982,,2020
6119050,6,6119,,Salas de Teatro,,Buenos Aires,Coronel Brandsen,Coronel Brandsen,Teatro El Viejo Rafiki,Magdalena Fait 442,,1980,221,545 6008,,facebook.com/teatroel.viejorafiki,,-35.16007,-58.243312,Precisa,Teatro y clases,,Plan Podesta 2020 / Relevamiento SINCA,Privado,,,2020
6217010,6,6217,,Salas de Teatro,,Buenos Aires,Chascomús,Chascomús,Mundo Gurrumin,Garay E/H.Yrigoyen y Machado,,7130,s/d,s/d,consuelorodriguezguerra@gmail.com,,,-35.57285,-58.00787,,,,Fondo Desarrollar 2020,Privado,2016,,2020
6224010,6,6224,,Salas de Teatro,,Buenos Aires,Chivilcoy,Chivilcoy,El Chasqui  Chivilcoy,Gral. Rodriguez 70,s/d,6620,2346,423445,teatroelchasqui@outlook.es,s/d,s/d,-34.89426,-60.1747,Precisa,,s/d,Plan Podesta 2020 / Relevamiento SINCA,Privado,1959,0,2020
6224010,6,6224,,Salas de Teatro,,Buenos Aires,Chivilcoy,Chivilcoy,Sala grupo teatral Trac,Humberto Primo 48,s/d,6620,2346,656055,grupotrac@gmail.com,www.grupotrac.blogspot.com.ar,s/d,-34.88878,-60.01283,Precisa,,s/d,Plan Podesta 2020 / Relevamiento SINCA,Privado,1997,0,2020
6224010,6,6224,,Salas de Teatro,,Buenos Aires,Chivilcoy,Chivilcoy,"Teatro ""La Cueva""",Rosetti 36,,6620,2346,456902,,,,-34.893776,-60.01464,Precisa,Teatro,,Plan Podesta 2020 / Relevamiento SINCA,Privado,,,2020
6252010,6,6252,,Salas de Teatro,,Buenos Aires,Escobar,Escobar,La Kalimba Espacio de Arte,Don Bosco 843,s/d,1625,11,5897 9315,espaciolakalimba@gmail.com,www.lakalimba.com.ar/,s/d,-34.35185165,-58.79164094,Precisa,,s/d,Fondo Desarrollar 2020,Privado,0,0,2020
6252010,6,6252,,Salas de Teatro,,Buenos Aires,Escobar,Garín,La Fábrica Teatral,Cabildo 2076 ,,1619,11,5468 8837,lafabricateatral@gmail.com,facebook.com/lafabricateatral/,,-34.4327,-58.73211,,,,Fondo Desarrollar 2020,Privado,,,2020
6260010,6,6260,,Salas de Teatro,,Buenos Aires,Esteban Echeverría,Esteban Echeverría,Espacio Teatral Canning,Coronel Vicente Dupuy 4600,,1804,11,5781 4937,espacioteatralcanning@gmail.com,facebook.com/EspacioTeatralCanning,,-34.88113,-58.5008,,"Teatro,clases",,Plan Podesta 2020 / Relevamiento SINCA,Privado,,,2020
6260010,6,6260,,Salas de Teatro,,Buenos Aires,Esteban Echeverría,Monte Grande,La Pentalpha Teatro,Valentín Alsina 7,,1842,11,3796 2993,teatro@lapentalpha.com,,,-34.82364,-58.46286,,,,Plan Podesta 2020 / Relevamiento SINCA,Privado,,,2020
6260010,6,6260,,Salas de Teatro,,Buenos Aires,Esteban Echeverría,Monte Grande ,La Rueca Teatro,General Alvear 483,,1842,11,4296 2573,laruecateatroyartes@gmail.com,facebook.com/LaRuecaTeatroyartes,,-34.815196,-58.45861,Precisa,"Sala de Teatro,obras",,Plan Podesta 2020 / Relevamiento SINCA,Privado,2012,,2020
6280020,6,6280,,Salas de Teatro,,Buenos Aires,General Alvarado,Mar del Sur,Teatro del Sur,Calle 31 y Calle 102,s/d,7607,s/d,s/d,teasur@gmail.com,facebook.com/fundacionteatrodelsur/,,-38.33893,-57.99656,Precisa,,s/d,Relevamiento SINCA,Público,0,0,2020
6280040,6,6280,,Salas de Teatro,,Buenos Aires,General Alvarado,Miramar,Espacio Konstantin Teatro,Calle 36 741,,7607,,,espaciokonstantin@gmail.com,facebook.com/EspacioKonstantinTeatro/,,-38.263985,-57.840354,Precisa,"Escuela de teatro, clases, talleres",,Plan Podesta 2020 / Relevamiento SINCA,Privado,,,2020
6351020,6,6351,,Salas de Teatro,,Buenos Aires,General Pinto,General Pinto,AlmaZen Teatro,Alberto Brown 448,,6050,,,eldesnivelteatro@hotmail.com,,,-34.75889,-61.89089,,Teatro autónomo y alternativo,,Plan Podesta 2020 / Relevamiento SINCA,Privado,,,2020
6351020,6,6352,,Salas de Teatro,,Buenos Aires,Mercedes,Mercedes,SABA  Centro de Arte,Calle 41 s/n,,6600,2324,46 1434,,facebook.com/sabacentrodearte,,-34.65178,-59.43907,,Teatro,,Plan Podesta 2020 / Relevamiento SINCA,Privado,,,2020
6357110,6,6357,,Salas de Teatro,,Buenos Aires,General Pueyrredon,Mar del Plata,Centro Cultural Dudu,25 de Mayo 3349,,7600,223,472 0110,duduteatroparabebes@gmail.com,facebook.com/duduteatroparabebes/,,-37.99379,-57.55314,,Teatro para Bebés,,Plan Podesta 2020 / Relevamiento SINCA,Privado,,,2020
6357110,6,6357,,Salas de Teatro,,Buenos Aires,General Pueyrredon,Mar del Plata,Cuatro Elementos Espacio Teatral,Alberti 2746,s/d,7600,223,49534798,josecanejo@yahoo.com.ar,www.espaciocuatroelementos.com,,-38.00603369,-57.55431667,Precisa,,s/d,Plan Podesta 2020 / Relevamiento SINCA,Privado,1991,150,2020
6357110,6,6357,,Salas de Teatro,,Buenos Aires,General Pueyrredon,Mar del Plata,Colectivo Cultural A la Vuelta de la Esquina,Alberti 3723,s/d,7600,s/d,s/d,angelesdepaoli@hotmail.com,facebook.com/colectivoalavueltadelaesquina/,,-38.00097,-57.5641,Precisa,,s/d,Alternativa Teatral / Relevamiento 2017,Privado,0,100,2020
6357110,6,6357,,Salas de Teatro,,Buenos Aires,General Pueyrredon,Mar del Plata,Teatro Estudio Re Fa Si,Av. Luro  2320,s/d,7600,223,4925103,s/d,facebook.com/teatro.refasi,,-38.000018,-57.543389,Precisa,,s/d,Argentores / Relevamiento 2017,Privado,0,0,2020
6357110,6,6357,,Salas de Teatro,,Buenos Aires,General Pueyrredon,Mar del Plata,El Séptimo Fuego,Bolívar 3675,s/d,7600,223,4959572,septimofuego@speedy.com.ar,facebook.com/teatroseptimofuego,Espacio no convencional,-37.997103,-57.560309,Precisa,,s/d,Plan Podesta 2020 / Relevamiento SINCA,Privado,1997,100,2020
6357110,6,6357,,Salas de Teatro,,Buenos Aires,General Pueyrredon,Mar del Plata,La Guarida,Entre Ríos 1964,,7600,,,laguaridamdp@gmail.com,,,-38.003568,-57.544548,Precisa,Presentación de obras teatrales,,Plan Podesta 2020 / Relevamiento SINCA,Privado,,,2020
6357110,6,6357,,Salas de Teatro,,Buenos Aires,General Pueyrredon,Mar del Plata,El Telón Teatro,España 1839,,7600,223,5427679,eltelonarte@gmail.com,facebook.com/eltelonarte/,,-37.996035,-57.557093,Precisa,"Teatro, cursos y talleres",,Plan Podesta 2020 / Relevamiento SINCA,Privado,,,2020
6357110,6,6357,,Salas de Teatro,,Buenos Aires,General Pueyrredon,Mar del Plata,La Maga Casa de Arte,Jujuy 1771,s/d,7600,223,6342822,lamagamdq@gmail.com,facebook.com/LaMagaCasadeTeatro/,,-37.99583014,-57.55561143,Precisa,,s/d,Plan Podesta 2020 / Relevamiento SINCA,Privado,0,0,2020
6357110,6,6357,,Salas de Teatro,,Buenos Aires,General Pueyrredon,Mar del Plata,El Galpón de las Artes,Jujuy 2755,s/d,7600,223,4964030,teatro@galponartes.com.ar,www.galponartes.com,Espacio no convencional,-37.980037,-57.553684,Precisa,,s/d,INT / Relevamiento 2017,Privado,1996,140,2020
6357110,6,6357,,Salas de Teatro,,Buenos Aires,General Pueyrredon,Mar del Plata,Liberart Espacio Cultural,Moreno 2742,s/d,7600,223,4962823,liberartespaciocultural@hotmail.com,facebook.com/liberartespaciocultural,,-38.0012,-57.55031,Precisa,"Teatro,presentación de obras teatrales,talleres de teatro",s/d,Plan Podesta 2020 / Relevamiento SINCA,Privado,2008,0,2020
6357110,6,6357,,Salas de Teatro,,Buenos Aires,General Pueyrredon,Mar del Plata,Teatro Hostel,Olavarría 2373,,7600,,,teatrohostel1@gmail.com,,,-38.010926,-57.539397,Precisa,"Teatro, investigación y puesta en práctica de obras",,Plan Podesta 2020 / Relevamiento SINCA,Privado,,,2020
6357110,6,6357,,Salas de Teatro,,Buenos Aires,General Pueyrredon,Mar del Plata,Teatro del Angel,Rivadavia 2312,s/d,7600,223,s/d,s/d,facebook.com/TeatrodelAngelMdp/,,-38.001705,-57.544601,Precisa,,s/d,Plan Podesta 2020 / Relevamiento SINCA,Privado,0,0,2020
6357110,6,6357,,Salas de Teatro,,Buenos Aires,General Pueyrredon,Mar del Plata,Teatro Bar La Campana,Rivadavia 2336,s/d,7600,223,61308003,s/d,facebook.com/TeatroLaCampana/,,-38.001569,-57.544848,Precisa,,s/d,Argentores / Relevamiento 2017,Privado,0,0,2020
6357110,6,6357,,Salas de Teatro,,Buenos Aires,General Pueyrredon,Mar del Plata,El Club del Teatro,Rivadavia 3422,s/d,7600,223,4758790,elclubdeteatro@yahoo.com.ar,www.elclubdelteatro.blogspot.com,,-37.996008,-57.555841,Precisa,,s/d,Plan Podesta 2020 / Relevamiento SINCA,Privado,0,0,2020
6357110,6,6357,,Salas de Teatro,,Buenos Aires,General Pueyrredon,Mar del Plata,Teatro La Bancaria. Sala Arturo Jauretche,San Luis 2069,s/d,7600,223,4957711,smardelplata@bancaria.org.ar,www.bancariamdp.org.ar,,-38.001891,-57.550207,Precisa,,s/d,INT / Relevamiento 2017,Privado,0,120,2020
6371010,6,6371,,Salas de Teatro,,Buenos Aires,General San Martín,General San Martin,Las 4 Plumas Club de Arte,Islas Malvinas 2982,,1650,11,5898 6491,las4plumasclubdearte@gmail.com,Facebook:Las 4 plumas Club de Arte,,-34.56486,-58.5421,,"Obras de Teatro, talleres",,Plan Podesta 2020 / Relevamiento SINCA,Privado,,,2020
6371010,6,6371,,Salas de Teatro,,Buenos Aires,General San Martín,General San Martin,Entelar Espacio,Marengo 3294,s/d,1650,11,47382299,entelarespacio@gmail.com,facebook.com/entelarespacio/,,-34.56052348,-58.54235185,Precisa,,s/d,Alternativa Teatral / Relevamiento 2017,Privado,2014,0,2020
6413050,6,6413,,Salas de Teatro,,Buenos Aires,Junin,Junin,Sala Teatro de Títeres Cubana Argentina,Lavalle 1511 ,1°,6000,236,4355159,lasyaquis@gmail.com,s/d,Capacidad sala 2: 40 personas,-34.57582,-60.9649,Precisa,"Espectáculos de títeres,cursos,talleres",s/d,Plan Podesta 2020 / Relevamiento SINCA,Privado,2017,80,2020
6427010,6,6427,,Salas de Teatro,,Buenos Aires,La Matanza,La Matanza,Teatro La Cordura del Copete,Arieta  3694,s/d,3040,11,44417668,lacorduradelcopete@yahoo.com.ar,www.lacorduradelcopete.blogspot.com,s/d,-34.683536,-58.553731,Precisa,,s/d,Alternativa Teatral / Relevamiento 2017,Privado,2003,0,2020
6427010,6,6427,,Salas de Teatro,,Buenos Aires,La Matanza,La Matanza,Travesía Teatro,El Macurú 162,s/d,1778,11,39389994,travesiateatro@gmail.com,http://travesiateatro.com.ar,"Espacio no convencional (tarima, al ras del piso. circular, semicircular)",-34.734772,-58.53196,Precisa,,s/d,Plan Podesta 2020 / Relevamiento SINCA,Privado,0,60,2020
6427010,6,6427,,Salas de Teatro,,Buenos Aires,La Matanza,La Matanza,Teatro La Cochera,J L Larre 477,s/d,1759,2202,422388,s/d,s/d,s/d,-34.769,-58.647,Precisa,,s/d,Plan Podesta 2020 / Relevamiento SINCA,Privado,0,250,2020
6427010,6,6427,,Salas de Teatro,,Buenos Aires,La Matanza,La Matanza,Aluperan Artes de Circo,Viamonte 160,s/d,1704,s/d,s/d,s/d,facebook.com/aluperan/,,-34.64415221,-58.55825928,Precisa,,s/d,Alternativa Teatral / Relevamiento 2017,Privado,0,0,2020
6434010,6,6434,,Salas de Teatro,,Buenos Aires,Lanús,Lanús,Casa Teatro El Correo,Carlos Gardel 178,,1824,,,,facebook.com/elcorreopipi,,-34.70935,-58.39391,,"Obras,talleres",,Plan Podesta 2020 / Relevamiento SINCA,Privado,,,2020
6434010,6,6434,,Salas de Teatro,,Buenos Aires,Lanús,Lanús,Sur Teatral,Gobernador Bernardo de Irigoyen 410,,1824,11,5037 2334,surteatral@gmail.com,facebook.com/clasesdeteatroenlanus/,,-34.70585,-58.39737,,Clases de Teatro,,Plan Podesta 2020 / Relevamiento SINCA,Privado,,,2020
6434010,6,6434,,Salas de Teatro,,Buenos Aires,Lanús,Lanús,La Fabrica Concert,Sarmiento 1710,,1824,,,,,,-34.70562,-58.38791,,"Teatro, talleres",,Plan Podesta 2020 / Relevamiento SINCA,Privado,,,2020
6441030,6,6441,,Salas de Teatro,,Buenos Aires,La Plata,La Plata,La Merceria Teatro,Av. 1 n°210,,1900,221,4834437,lamerceriateatrolp@gmail.com,facebook.com/lamerceriateatro,,-34.8984,-57.95788,Precisa,Presentación de obras teatrales,,Plan Podesta 2020 / Relevamiento SINCA,Privado,,,2020
6441030,6,6441,,Salas de Teatro,,Buenos Aires,La Plata,La Plata,Espacio 44. Laboratorio Crativo,Av. 44 nº 496,s/d,1900,221,5907600,danielgismondi@yahoo.com.ar,www.espacio44.com.ar,"Espacio no convencional (tarima, al ras del piso. circular, semicircular) -  Capacidad sala 2: 40 personas",-34.908757,-57.953107,Precisa,,s/d,Plan Podesta 2020 / Relevamiento SINCA,Privado,2006,50,2020
6441030,6,6441,,Salas de Teatro,,Buenos Aires,La Plata,La Plata,Casa Teatro El Altillo del Sur,Calle 1 nº 1693,s/d,1900,221,4834975,cpalumbo@netverk.com.ar,s/d,s/d,-34.921134,-57.927461,Precisa,,s/d,Plan Podesta 2020 / Relevamiento SINCA,Privado,0,0,2020
6441030,6,6441,,Salas de Teatro,,Buenos Aires,La Plata,La Plata,El Sótano Club Cultural,Calle 10  967,,1900,s/d,,espacioelsotano@gmail.com,facebook.com/elsotanolaplata/,,-34.918699,-57.951523,Precisa,"Sala,Obras,talleres",,Plan Podesta 2020 / Relevamiento SINCA,Privado,,,2020
6441030,6,6441,,Salas de Teatro,,Buenos Aires,La Plata,La Plata,Asociación amigos del taller de Teatro de la Universidad Nacional de la Plata,Calle 10 nº 1076,s/d,1900,221,4232283,amigosdeteatrounlp@datamarkets.com,www.teatrounlp.com.ar,s/d,-34.919862,-57.949851,Precisa,,Universidad,Plan Podesta 2020 / Relevamiento SINCA,Público,1986,80,2020
6441030,6,6441,,Salas de Teatro,,Buenos Aires,La Plata,La Plata,Centro Cultural El Escudo,Calle 10 nº 1373,s/d,1900,s/d,s/d,s/d,s/d,s/d,-34.924128,-57.944093,Precisa,,s/d,Plan Podesta 2020 / Relevamiento SINCA,Privado,0,0,2020
6441030,6,6441,,Salas de Teatro,,Buenos Aires,La Plata,La Plata,VIL Teatro,Calle 11 nº 1884,s/d,1900,s/d,s/d,vilteatrolaplata@gmail.com,s/d,s/d,-34.93351,-57.93361,Precisa,,s/d,Plan Podesta 2020 / Relevamiento SINCA,Privado,0,30,2020
6441030,6,6441,,Salas de Teatro,,Buenos Aires,La Plata,La Plata,Teatro Telon Negro,Calle 13 entre Calle 32 y Calle 33 ,s/d,s/d,221,4670639,info@telonnegroteatro.com.ar,www.telonnegroteatro.com.ar,s/d,-34.90653,-57.97458,Aproximada,,s/d,Plan Podesta 2020 / Relevamiento SINCA,Privado,0,0,2020
6441030,6,6441,,Salas de Teatro,,Buenos Aires,La Plata,La Plata,Dynamo Teatro,Calle 17 N°1754,,1904,,,,facebook.com/dynamoteatro/,,-34.93721,-57.94266,,"Teatro,Cursos y Talleres",,Plan Podesta 2020 / Relevamiento SINCA,Privado,2018,,2020
6441030,6,6441,,Salas de Teatro,,Buenos Aires,La Plata,La Plata,Teatro Estudio,Calle 3 nº 386,s/d,1900,221,4234366,teatroestudiodelasartes@hotmail.com,www.teatroestudio.com.ar,s/d,-34.903341,-57.956031,Precisa,,s/d,Plan Podesta 2020 / Relevamiento SINCA,Privado,2003,80,2020
6441030,6,6441,,Salas de Teatro,,Buenos Aires,La Plata,La Plata,Teatro El Escape,Calle 4 nº 1143 ,s/d,1900,221,4704579,s/d,s/d,s/d,-34.91502,-57.94277,Precisa,,s/d,Plan Podesta 2020 / Relevamiento SINCA,Privado,0,0,2020
6441030,6,6441,,Salas de Teatro,,Buenos Aires,La Plata,La Plata,Escenario 40 Teatro,Calle 40 n° 1180,s/d,1900,221,4545243,escenario40@gmail.com,s/d,s/d,-34.91821,-57.9716,Precisa,"Teatro de Arte Dramático,clases ",s/d,Plan Podesta 2020 / Relevamiento SINCA,Privado,0,0,2020
6441030,6,6441,,Salas de Teatro,,Buenos Aires,La Plata,La Plata,Teatro La Nonna,Calle 47 n°395,s/d,1900,221,4275555,leoringerargentina@yahoo.com.ar,www.teatrolanonna.com.ar,Capacidad sala 2: 120 personas;  Capacidad sala 3:  50 personas,-34.899658,-57.938696,Precisa,,s/d,Plan Podesta 2020 / Relevamiento SINCA,Privado,1991,200,2020
6441030,6,6441,,Salas de Teatro,,Buenos Aires,La Plata,La Plata,La Lechuza,Calle 58 n° 757,s/d,s/d,221,4721612,carnerolaura@gmail.com,www.lalechuzateatro.blogspot.com.ar,s/d,-34.92209,-57.94714,Precisa,,s/d,Plan Podesta 2020 / Relevamiento SINCA,Privado,1957,0,2020
6441030,6,6441,,Salas de Teatro,,Buenos Aires,La Plata,La Plata,Espacio Arte Vivo,Calle 58 nº 461,s/d,s/d,221,4216155,espacioart@yahoo.com.ar,s/d,s/d,-34.916774,-57.941135,Precisa,,s/d,Plan Podesta 2020 / Relevamiento SINCA,Privado,1994,85,2020
6441030,6,6441,,Salas de Teatro,,Buenos Aires,La Plata,La Plata,Teatro Abierto,Calle 63 N°407,,1900,221,579 8971,teatroabiertolp@gmail.com,facebook.com/teatroabiertolp/,,-34.91981,-57.93433,,Teatro y clases,,Plan Podesta 2020 / Relevamiento SINCA,Privado,,,2020
6441030,6,6441,,Salas de Teatro,,Buenos Aires,La Plata,La Plata,Teatro Practico,Calle 63 n°487,,1900,,,tepeteatropractico@gmail.com,facebook.com/tepeteatropractico/,,-34.9212,-57.93587,,,,Plan Podesta 2020 / Relevamiento SINCA,Privado,,,2020
6441030,6,6441,,Salas de Teatro,,Buenos Aires,La Plata,La Plata,La  Caterva de City Bell,Cantilo 471,,1896,221,418 3597,lacatervadecitybell@outlook.com,facebook.com/la.caterva.7/,,-34.87025,-58.04547,,"Teatro,clases",,Plan Podesta 2020 / Relevamiento SINCA,Privado,,,2020
6455030,6,6455,,Salas de Teatro,,Buenos Aires,Las Flores,Las Flores,Espacio Teatral del Borde,Bernardo de Irigoyen 570,s/d,7200,2244,441926,delbordeteatro@gmail.com,s/d,s/d,-36.01754494,-59.10043227,Precisa,,s/d,Plan Podesta 2020 / Relevamiento SINCA,Privado,0,0,2020
6469080,6,6469,,Salas de Teatro,,Buenos Aires,Lincoln,Lincoln,Teatro G.i.d.i ( Grupo independiente para el desarrollo integral del niño y el adolescente),Avenida 9 de Julio 348,,6070,s/d,,,facebook.com/teatro.gidi/about,,-34.87086,-61.526014,Precisa,"Obras de teatro, biblioteca",,Plan Podesta 2020 / Relevamiento SINCA,Privado,1983,,2020
6490010,6,6490,,Salas de Teatro,,Buenos Aires,Lomas de Zamora,Lomas de Zamora,Asociación Teatro de las Nobles Bestias,14 de Julio 142,s/d,1832,11,42440813,noblesbestiasteatro@gmail.com,s/d,s/d,-34.774483,-58.394079,Precisa,,s/d,Plan Podesta 2020 / Relevamiento SINCA,Privado,1994,150,2020
6490010,6,6490,,Salas de Teatro,,Buenos Aires,Lomas de Zamora,Lomas de Zamora,Jicara Teatro (Ex Galón de Diablomundo),Almirante Brown 3589,s/d,1832,11,42480441,galpondiablomundo@gmail.com,s/d,s/d,-34.778155,-58.391194,Precisa,,s/d,Plan Podesta 2020 / Relevamiento SINCA,Privado,0,100,2020
6490010,6,6490,,Salas de Teatro,,Buenos Aires,Lomas de Zamora,Lomas de Zamora,Cultura del Sur,Avenida Meeks 1066,s/d,1832,11,43922066,culturadelsur@gmail.com,www.culturadelsur.blogspot.com.ar,s/d,-34.77419,-58.39755,Precisa,,s/d,Plan Podesta 2020 / Relevamiento SINCA,Privado,0,180,2020
6490010,6,6490,,Salas de Teatro,,Buenos Aires,Lomas de Zamora,Lomas de Zamora,Cultura Click,Avenida Meeks 1387,s/d,1832,11,549703191,centroculturalclick@gmail.com,s/d,s/d,-34.7777,-58.39718,Precisa,,s/d,Plan Podesta 2020 / Relevamiento SINCA,Privado,0,0,2020
6490010,6,6490,,Salas de Teatro,,Buenos Aires,Lomas de Zamora,Lomas de Zamora,Latitud Teatro,Laprida 2590,,1832,11,4282 8954,s/d,s/d,,-34.7567,-58.43084,,Clases,,Plan Podesta 2020 / Relevamiento SINCA,Privado,,,2020
6490010,6,6490,,Salas de Teatro,,Buenos Aires,Lomas de Zamora,Lomas de Zamora,El Nido,Manuel Castro 478,s/d,1832,11,42431214,hola@elnidoarte.com.ar,www.elnidoarte.com.ar,s/d,-34.75449,-58.40287,Precisa,,s/d,Secretaria de Cultura Lomas de Zamora / Relevamiento 2017,Privado,0,0,2020
6490010,6,6490,,Salas de Teatro,,Buenos Aires,Lomas de Zamora,Lomas de Zamora,Teatro de las Memorias,Sáenz 227,s/d,1832,11,20598607,delasmemorias@yahoo.com.ar,s/d,s/d,-34.758385,-58.399529,Precisa,,s/d,Secretaria de Cultura Lomas de Zamora / Relevamiento 2017,Privado,0,0,2020
6497060,6,6497,,Salas de Teatro,,Buenos Aires,Luján,Lujan,Teatro La Mariana,Francia 1051 ,s/d,6700,2323,440006,gtielgalpon@hotmail.com,facebook.com/teatrolamariana/,,-34.565054,-59.119548,Precisa,,s/d,Alternativa Teatral / Relevamiento 2017,Privado,0,80,2020
6497060,6,6497,,Salas de Teatro,,Buenos Aires,Luján,Lujan,Teatro del Galpón,General Belgrano eHipólito Irigoyen ,,6700,s/d,,elgalponteatro@gmail.com,facebook.com/TeatroElGalponLujan/,,-34.576502,-59.103423,Precisa,"Teatro,talleres,muestras,actividades culturales",,Plan Podesta 2020 / Relevamiento SINCA,Privado,,,2020
6518040,6,6518,,Salas de Teatro,,Buenos Aires,Mar Chiquita,Mar Chiquita,TEATRO POQUELIN,Bariloche 210 ,,7609,223,5136669,,https://teatropoquelin.blogspot.com/,,-37.843183,-57.508942,Precisa,"Producción de espectáculos,seminarios de actuación",,Plan Podesta 2020 / Relevamiento SINCA,Privado,,,2020
6539010,6,6539,,Salas de Teatro,,Buenos Aires,Merlo,Merlo,Teatro Municipal de Merlo Enrique Santos Discépolo,Colón 600,s/d,1722,s/d,s/d,s/d,www.merlo.gob.ar/cartelera-teatro-municipal,,-34.666791,-58.723326,Precisa,,s/d,Argentores / Relevamiento 2017,Público,0,0,2020
6568010,6,6568,,Salas de Teatro,,Buenos Aires,Moron,Morón,Sociedad Fomento de Castelar y Biblioteca Popular 9 de Julio,Almafuerte 2642,s/d,1712,11,46292150,s/d,s/d,s/d,-37.39283705,-62.80509305,Precisa,,s/d,Argentores / Relevamiento 2017,Privado,0,0,2020
6568010,6,6568,,Salas de Teatro,,Buenos Aires,Moron,Morón,Teatro El Baldio,Avenida Boulevard Finca 6577,s/d,1684,11,47587804,info@elbaldio.org,www.elbaldio.org/index.php?option=com_content&view=article&id=34&Itemid=107,s/d,-34.597956,-58.594958,Precisa,,s/d,Plan Podesta 2020 / Relevamiento SINCA,Privado,1985,0,2020
6568010,6,6568,,Salas de Teatro,,Buenos Aires,Moron,Morón,Cine Teatro Helios,Avenida Boulevard San Martin 3076,s/d,1706,11,2930364,heliospalomar@gmail.com,www.cineteatrohelios.com.ar,s/d,-34.604,-58.59276,Precisa,HELIOS PALOMAR SRL,s/d,Alternativa Teatral / Relevamiento 2017,Privado,0,200,2020
6595070,6,6595,,Salas de Teatro,,Buenos Aires,Olavarría,Olavarría,Punto de Giro,Maipú 3428 ,,7400,2284,60 8003,puntodegiro@live.com.ar,facebook.com/puntodegiro.espacioteatral,,-36.88496,-60.32271,,Obras de Teatro,,Plan Podesta 2020 / Relevamiento SINCA,Privado,,,2020
6602030,6,6602,,Salas de Teatro,,Buenos Aires,Carmen de Patagones,Carmen de Patagones,El Caldero Sala Teatral Espacio Autónomo,Patagonia 277,,8504,2920,49 8136,miguelinalariguet@yahoo.com.ar,https://miguelinalariguet.wixsite.com/,,-40.809835,-62.980832,,"Sala teatral,seminarios",,Plan Podesta 2020 / Relevamiento SINCA,Privado,,,2020
6609080,6,6609,,Salas de Teatro,,Buenos Aires,Pehuajó,Pehuajó,Lo de Oscar,Goyena 474,,6450,11,6142 9658,,,,-35.81732,-61.90549,,"Obras de Teatro, talleres,clown",,Plan Podesta 2020 / Relevamiento SINCA,Privado,2019,,2020
6609080,6,6609,,Salas de Teatro,,Buenos Aires,Pehuajó,Pehuajó,Teatro Independiente de Pehuajó TIP ,Varela 558,s/d,6450,2396,478890,teatroindependientepehuajo@yahoo.com.ar,facebook.com/tip.pehuajo,,-35.807363,-61.899635,Precisa,,s/d,Plan Podesta 2020 / Relevamiento SINCA,Privado,0,0,2020
6623100,6,6623,,Salas de Teatro,,Buenos Aires,Pergamino,Pergamino,HIPÓCRITAS TEATRO UNDER ,Avenida Colón 10,,2700,s/d,,,,,-33.887176,-60.578398,Precisa,"Obras de Teatro,y talleres",,Plan Podesta 2020 / Relevamiento SINCA,Privado,,,2020
6623100,6,6623,,Salas de Teatro,,Buenos Aires,Pergamino,Pergamino,Habemus Theatrum,Jujuy 227,,2700,2477,451468,habemustheatrum@gmail.com,,,-33.893452,-60.562279,Precisa,Obras de Teatro,,Plan Podesta 2020 / Relevamiento SINCA,Privado,,,2020
6658010,6,6658,,Salas de Teatro,,Buenos Aires,Quilmes,Quilmes,Teatro Municipal de Quilmes,Avenida Mitre 721,s/d,1878,11,42532213,s/d,facebook.com/TeatroQuilmes/,,-34.7225129,-58.2532387,Precisa,,s/d,Relevamiento 2017,Público,0,0,2020
6658010,6,6658,,Salas de Teatro,,Buenos Aires,Quilmes,Quilmes,Multicultural Don Bosco,Belgrano 280,s/d,1876,11,42520046,multiculturaldb@yahoo.com.ar,www.multiculturaldb.blogspot.com,s/d,-34.7126,-58.28012,Precisa,,s/d,Alternativa Teatral / Relevamiento 2017,Privado,2005,0,2020
6658010,6,6658,,Salas de Teatro,,Buenos Aires,Quilmes,Quilmes,Casa de Arte Doña Rosa,Colón 279,s/d,1876,11,42247270,s/d,www.casadeartedr.blogspot.com,s/d,-34.71818,-58.25809,Precisa,,s/d,Alternativa Teatral / Relevamiento 2017,Privado,0,0,2020
6665040,6,6665,,Salas de Teatro,,Buenos Aires,Ramallo,Ramallo,Teatro Ramallo,Sarmiento 1127,,2915,3407,411383,teatroramallo@gmail.com,,,-33.49906,-60.066602,Precisa,"Espectáculos teatrales, musicales y culturales",,Plan Podesta 2020 / Relevamiento SINCA,Privado,,,2020
6672010,6,6672,,Salas de Teatro,,Buenos Aires,Rauch,Rauch,Candilejas,Sarmiento 53,s/d,7203,249,4509507,silvinaordoqui@hotmail.com,s/d,,-36.77781532,-59.08712447,Precisa,,s/d,INT / Relevamiento 2017,Privado,0,237,2020
6700060,6,6700,,Salas de Teatro,,Buenos Aires,Pigué,Pigué,El REFUGIO TEATRO ,General Urquiza 584,,8170,2923,41 4284,elrefugiopigue@gmail.com,,,-37.60771,-62.40389,,"Obras de teatro,clases",,Plan Podesta 2020 / Relevamiento SINCA,Privado,,,2020
6707060,6,6707,,Salas de Teatro,,Buenos Aires,Saladillo,Saladillo,LAM TEATRO,12 de Octubre 3402-3500,,7260,2344,431526,,facebook.com/teatrolam/,,-35.638443,-59.783407,Precisa,"Presentación Obras de teatro,talleres",,Plan Podesta 2020 / Relevamiento SINCA,Privado,2011,,2020
6707060,6,6707,,Salas de Teatro,,Buenos Aires,Saladillo,Saladillo,Comedia de Saladillo,Moreno 2999,,7260,s/d,,,www.teatrocomedia.com.ar/,,-35.639482,-59.779096,Precisa,"Sala teatral,seminarios",,Plan Podesta 2020 / Relevamiento SINCA,Público,1979,248,2020
6749010,6,6749,,Salas de Teatro,,Buenos Aires,San Fernando,Victoria,Teatro Martín Fierro,Pasteur 1415,s/d,1644,11,47252702,teatromartinfierro@hotmail.com,,s/d,-34.451109,-58.546942,Precisa,,s/d,Plan Podesta 2020 / Relevamiento SINCA,Privado,0,0,2020
6756010,6,6756,,Salas de Teatro,,Buenos Aires,San Isidro,Martínez,Espacio Teatral Rocha,Catamarca 1371,,1640,11,58292274,espacioculturalrocha@gmail.com,facebook.com/espaciorocha/,,-34.489342,-58.521908,Precisa,"Teatro,obras  ",,Plan Podesta 2020 / Relevamiento SINCA,Privado,,,2020
6756010,6,6756,,Salas de Teatro,,Buenos Aires,San Isidro,San Isidro,Piropearte Espacio de Arte,Liniers 365,s/d,1642,11,47070169,piropiarte@gmail.com,www.piropiarte.com.ar,s/d,-34.46797,-58.52427,Precisa,,s/d,Fondo Desarrollar 2020,Privado,2012,0,2020
6760010,6,6760,,Salas de Teatro,,Buenos Aires,San Miguel,San Miguel,Teatro Estudio More Altamirano,Las Heras 1298,,1663,s/d,,teatrodelasollas@gmail.com,facebook.com/TeatroEstudioMoreAltamirano,,-34.547519,-58.706345,Precisa,Presentación Obras con contenido social y Político,,Plan Podesta 2020 / Relevamiento SINCA,Privado,2006,,2020
6760010,6,6760,,Salas de Teatro,,Buenos Aires,San Miguel,San Miguel,Teatro La Herrería,Sarmiento 2000 ,s/d,1663,11,46671640,teatro.laherreria@gmail.com,www.herreriateatro.blogspot.com,s/d,-34.53919,-58.71779,Precisa,,s/d,Plan Podesta 2020 / Relevamiento SINCA,Privado,2008,0,2020
6763050,6,6763,,Salas de Teatro,,Buenos Aires,San Nicolás de los Arroyos,San Nicolás de los Arroyos,"Espacio Artístico Independiente ""Ágora""",Almafuerte 275,,2900,336,4250695,agora.eci@gmail.com,facebook.com/agora.eci/,,-33.336687,-60.212178,,Teatro Y talleres,,Plan Podesta 2020 / Relevamiento SINCA,Privado,,,2020
6770050,6,6770,,Salas de Teatro,,Buenos Aires,San Pedro,San Pedro,Cuarta Pared,Almafuerte e Independencia,s/d,2930,s/d,s/d,s/d,s/d,s/d,-33.68481,-59.66651,Precisa,,s/d,Plan Podesta 2020 / Relevamiento SINCA,Privado,0,0,2020
6791050,6,6791,,Salas de Teatro,,Buenos Aires,Tandil,Tandil,Club de Teatro,Chacabuco 517,s/d,7000,2494,448074,clubdeteatrodetandil@gmail.com,s/d,s/d,-37.327031,-59.136421,Precisa,,s/d,Plan Podesta 2020 / Relevamiento SINCA,Privado,0,0,2020
6791050,6,6791,,Salas de Teatro,,Buenos Aires,Tandil,Tandil,Teatro  Bajosuelo Tandil,General Rodríguez 457,,7000,,,info@teatrobajosuelo.com,facebook.com/teatrobajosuelo/,,-37.32826,-59.13556,,"Clases de Teatro,Talleres",,Plan Podesta 2020 / Relevamiento SINCA,Privado,,,2020
6805010,6,6805,,Salas de Teatro,,Buenos Aires,Tigre,Tigre,Circo de las Artes,Av. San Martin 151,s/d,1648,11,47313578,anahepner@circodelasartes.com,www.circodelasartes.com,s/d,-34.42107,-58.58303,Precisa,,s/d,Plan Podesta 2020 / Relevamiento SINCA,Privado,2009,140,2020
6826050,6,6826,,Salas de Teatro,,Buenos Aires,Trenque Lauquen,Trenque Lauquen,Taller Actoral Henderson. Sala Beto Blanco,s/d,,,,,,,,-35.97469516,-62.73230997,Centroide localidad,,,Plan Podesta 2020 / Relevamiento SINCA,Privado,1995,,2020
6840010,6,6840,,Salas de Teatro,,Buenos Aires,Tres de Febrero,Tres de Febrero,El Bardio Teatro,Boulevard Finca 6577,,1683,11,7008 5647,elbaldioenpalomar@gmail.com,facebook.com/ELBALDIOTEATRO/,,-34.59732372,-58.59369,,,,Fondo Desarrollar 2020,Privado,,,2020
6840010,6,6840,,Salas de Teatro,,Buenos Aires,Tres de Febrero,Tres de Febrero,La Brújula al Oeste,Padre Elizalde 181,s/d,1702,11,52919312,teatrociudadela@hotmail.com,facebook.com/brujulaaloeste,s/d,-34.63813,-58.54236,Precisa,,s/d,Plan Podesta 2020 / Relevamiento SINCA,Privado,0,0,2020
6854100,6,6854,,Salas de Teatro,,Buenos Aires,25 De Mayo,25 De Mayo,Multiespacio de Arte,Calle 24 1482,,6660,,,,,,-35.435209,-60.179515,Precisa,Teatro Y talleres,,Plan Podesta 2020 / Relevamiento SINCA,Privado,,,2020
6861010,6,6861,,Salas de Teatro,,Buenos Aires,Vicente Lopez,Vicente Lopez,La Choza de Padilla,B. de Yrigoyen 535,,1603,,,fb/lachozadepadilla,,,-34.5428792,-58.5012039,Precisa,,,Red de Espacios Culturales Vicente López,Privado,0,,2020
6861010,6,6861,,Salas de Teatro,,Buenos Aires,Vicente Lopez,Vicente Lopez,Teatro de Repertorio del Norte,Carlos Francisco Melo 1756,s/d,s/d,11,47978515,trn@trn.com.ar,www.trn.com.ar,s/d,-34.531007,-58.483264,Precisa,,s/d,Plan Podesta 2020 / Relevamiento SINCA,Privado,1992,100,2020
6861010,6,6861,,Salas de Teatro,,Buenos Aires,Vicente Lopez,Vicente Lopez,Teatro In,Talcahuano 671,,1602,,,www.grupo-in-teatro.blogspot.com,,,-34.5483908,-58.5151535,Precisa,,,Plan Podesta 2020 / Relevamiento SINCA,Privado,0,,2020
6868020,6,6868,,Salas de Teatro,,Buenos Aires,Villa Gesell,Villa Gesell,Casa de la Cultura de Villa Gesell,Av.3 nº 874 ,s/d,7165,2255,462513,s/d,www.cultura.gesell.gob.ar,s/d,-37.261334,-56.972229,Precisa,,s/d,Alternativa Teatral / Relevamiento 2017,Público,0,0,2020
6868020,6,6868,,Salas de Teatro,,Buenos Aires,Villa Gesell,Villa Gesell,La Casa de los Artistas,Av.a 5 y 127 (bis),s/d,7165,2255,462966,teatroaccion@gesell.com.ar,s/d,s/d,-37.275716,-56.986865,Precisa,,s/d,Plan Podesta 2020 / Relevamiento SINCA,Privado,1998,0,2020
10049030,10,10049,,Salas de Teatro,,Catamarca,Capital,San Fernando del Valle de Catamarca,La Ramona sala teatral y espacio cultural,Rojas 414 ,,4700,383,492 1709,,facebook.com/laramonacultural/,,-28.46438,-65.78126,,"Teatro, cursos y talleres",,Plan Podesta 2020 / Relevamiento SINCA,Privado,,,2020
14014010,14,14014,,Salas de Teatro,,Cordoba,Capital,Cordoba,Espacio Centralia,27 de abril 370,,5000,s/d,,centraliateatro@gmail.com,www.centraliateatro.com/,,-31.415624,-64.189533,Precisa,"Teatro,talleres,formación actoral",,Plan Podesta 2020 / Relevamiento SINCA,Privado,,,2020
14014010,14,14014,,Salas de Teatro,,Cordoba,Capital,Cordoba,Bataclana Espacio Cultural ,Arturo M. Bas 1083 ,P.B.,5000,351,3427058,bataclanaespacio@gmail.com,www.bataclanaespaciocultural.blogspot.com,"Espacio no convencional (tarima, al ras del piso. circular, semicircular) - capacidad sala 2: 30 personas ",-31.42575,-64.19732,Precisa,,s/d,Plan Podesta 2020 / Relevamiento SINCA,Privado,2007,100,2020
14014010,14,14014,,Salas de Teatro,,Cordoba,Capital,Cordoba,Teatro La Brújula,Bernardino Rivadavia 1452,,5000,351,301 0723,teatrolabrujulacba@gmail.com,https://teatrolabrujula.com.ar/,,-31.401712,-64.176216,Precisa,"Teatro,producciones teatrales",,Plan Podesta 2020 / Relevamiento SINCA,Privado,,,2020
14014010,14,14014,,Salas de Teatro,,Cordoba,Capital,Cordoba,Espacio Tres 51,Félix Robin Ferreyra 2932,s/d,5000,351,4803650,s/d,www.espaciotres51.blogspot.com.ar,s/d,-31.39893,-64.182129,Precisa,,s/d,Plan Podesta 2020 / Relevamiento SINCA,Privado,0,90,2020
14014010,14,14014,,Salas de Teatro,,Cordoba,Capital,Cordoba,Teatro La Cochera,Fructuoso Rivera 541 ,s/d,5000,351,4604032,lacocherateatro@yahoo.com.ar,www.teatrolacochera.blogspot.com.ar,"Espacio no convencional (tarima, al ras del piso. circular, semicircular)",-31.424356,-64.196107,Precisa,,s/d,Plan Podesta 2020 / Relevamiento SINCA,Privado,1984,100,2020
14014010,14,14014,,Salas de Teatro,,Cordoba,Capital,Cordoba,La Llave,Gauss. Av. 5730,,5000,,,teatrolallave@yahoo.com,http://teatrolallave.com/,,-31.3560984,-64.2506558,Precisa,"Obras Teatrales,talleres",,Plan Podesta 2020 / Relevamiento SINCA,Privado,,,2020
14014010,14,14014,,Salas de Teatro,,Cordoba,Capital,Cordoba,Graciela Carena,Gral. Alvear 157,s/d,5000,351,4245402,ccgracielacarena@gmail.com,www.programacionccgracielacarena.blogspot.com.ar,s/d,-31.41509,-64.18066,Precisa,,s/d,Dir. Emprendimientos Creativos Ciudad de CBA ,Privado,0,0,2020
14014010,14,14014,,Salas de Teatro,,Cordoba,Capital,Cordoba,Teatro La Calle,Gral. Bustos 1000,s/d,5000,351,4724083,putitoreservas@gmail.com,www.lacalleteatro.blogspot.com.ar,s/d,-31.399984,-64.192143,Precisa,,s/d,Plan Podesta 2020 / Relevamiento SINCA,Privado,0,65,2020
14014010,14,14014,,Salas de Teatro,,Cordoba,Capital,Cordoba,Escenia Teatro,Hipólito Yrigoyen 464,,5000,351,680 8167,escenia@gmail.com,facebook.com/EsceniaTeatro/,,-31.42571541,-64.18626833,,,,Fondo Desarrollar 2020,Privado,,,2020
14014010,14,14014,,Salas de Teatro,,Cordoba,Capital,Cordoba,La Chacarita,Jacinto Ríos 1449,P.B.,5000,351,4231159,lachacaritateatro@gmail.com,www.lachacaritateatro.wordpress.com,"Espacio no convencional (tarima, al ras del piso. circular, semicircular) - Capacidad sala 2: 30 personas",-31.400745,-64.170861,Precisa,,s/d,Plan Podesta 2020 / Relevamiento SINCA,Privado,1999,90,2020
14014010,14,14014,,Salas de Teatro,,Cordoba,Capital,Cordoba,La Casa del Títere,La Rioja 800,s/d,5000,351,4211638,lacasadeltitere@yahoo.com.ar,www.lacasadeltitere.com.ar,s/d,-31.408084,-64.193411,Precisa,,s/d,Plan Podesta 2020 / Relevamiento SINCA,Privado,0,120,2020
